id,type,address,number,postal_code,municipality,province,location,public,available,hours,concat_address,location_geo,coords,lat,lon,alt
87.0,,Uitbreidingstraat,,2600.0,Berchem,Antwerpen,,,,,"Uitbreidingstraat , Antwerpen, 2600, Belgique","Uitbreidingstraat, Oud-Berchem, Berchem, Antwerpen, Vlaanderen, 2600, België / Belgique / Belgien","(51.1971308, 4.4300786, 0.0)",51.1971308,4.4300786,0.0
102.0,,Nieuwe Weg ,1.0,2070.0,ZWIJNDRECHT,Antwerpen,,Y,,,"Nieuwe Weg  1, Antwerpen, 2070, Belgique","1, Nieuwe Weg, Zwijndrecht, Antwerpen, Vlaanderen, 2070, België / Belgique / Belgien","(51.2341134, 4.3204443961465735, 0.0)",51.2341134,4.3204443961465735,0.0
277.0,Appareil Mobile- Mobiel apparaat,Adriaan Brouwerstraat,24.0,2000.0,Antwerpen,Antwerpen,,,,,"Adriaan Brouwerstraat 24, Antwerpen, 2000, Belgique","Grimaldi, 24, Adriaan Brouwerstraat, Nieuwstad-Cadix, Eilandje, Sint-Anna, Antwerpen, Vlaanderen, 2000, België / Belgique / Belgien","(51.22736125, 4.404384087968529, 0.0)",51.22736125,4.404384087968529,0.0
282.0,,Kempenarestraat,53.0,2860.0,Sint-Katelijne-Waver,Antwerpen,,Y,,,"Kempenarestraat 53, Antwerpen, 2860, Belgique","Kempenarestraat, Sint-Katelijne-Waver, Mechelen, Antwerpen, Vlaanderen, 2860, België / Belgique / Belgien","(51.0648368, 4.5191621, 0.0)",51.0648368,4.5191621,0.0
319.0,,Sint-Katelijnestraat ,154.0,2800.0,Mechelen,Antwerpen,,,,,"Sint-Katelijnestraat  154, Antwerpen, 2800, Belgique","idewe, 154, Sint-Katelijnestraat, Marokken, Mechelen, Antwerpen, Vlaanderen, 2800, België / Belgique / Belgien","(51.0340562, 4.4755927, 0.0)",51.0340562,4.4755927,0.0
321.0,,Patersstraat,100.0,2300.0,Turnhout,Antwerpen,,,,,"Patersstraat 100, Antwerpen, 2300, Belgique","Paterspand, 100, Patersstraat, Turnhout, Antwerpen, Vlaanderen, 2300, België / Belgique / Belgien","(51.3269454, 4.950121494714731, 0.0)",51.3269454,4.950121494714731,0.0
398.0,,Haarlebeek,3.0,2275.0,Lille,Antwerpen,,,,,"Haarlebeek 3, Antwerpen, 2275, Belgique","3, Haarlebeek, Lille, Turnhout, Antwerpen, Vlaanderen, 2275, België / Belgique / Belgien","(51.2812474, 4.831571119776004, 0.0)",51.2812474,4.831571119776004,0.0
399.0,,Pedro Colomalaan,25.0,2880.0,Bornem,Antwerpen,,,,,"Pedro Colomalaan 25, Antwerpen, 2880, Belgique","25, Pedro Colomalaan, Bornem, Mechelen, Antwerpen, Vlaanderen, 2880, België / Belgique / Belgien","(51.08715575, 4.262119157411085, 0.0)",51.08715575,4.262119157411085,0.0
409.0,,Vlasland,4.0,2260.0,Westerlo,Antwerpen,,Y,,,"Vlasland 4, Antwerpen, 2260, Belgique","Vlaspand, 2,4,6, Vlasland, Zoerle-Parwijs, Westerlo, Turnhout, Antwerpen, Vlaanderen, 2260, België / Belgique / Belgien","(51.0956788, 4.872052207977313, 0.0)",51.0956788,4.872052207977313,0.0
414.0,,Slachthuislaan,74.0,2060.0,Antwerpen,Antwerpen,,,,,"Slachthuislaan 74, Antwerpen, 2060, Belgique","Albert Heijn, 74, Slachthuislaan, Dam, Antwerpen-Noord, Antwerpen, Vlaanderen, 2060, België / Belgique / Belgien","(51.2289255, 4.4378719325387195, 0.0)",51.2289255,4.4378719325387195,0.0
420.0,,Weerstandlaan,24.0,2660.0,Hoboken,Antwerpen,,,,,"Weerstandlaan 24, Antwerpen, 2660, Belgique","Basic-Fit, 24, Weerstandlaan, Zwaantjes, Hoboken, Antwerpen, Vlaanderen, 2660, België / Belgique / Belgien","(51.1863736, 4.3713563, 0.0)",51.1863736,4.3713563,0.0
431.0,,Liersestwg.,4.0,2800.0,Mechelen,Antwerpen,,,,,"Liersestwg. 4, Antwerpen, 2800, Belgique","Telenet, 4, Liersesteenweg, Nekkerspoel, Mechelen, Antwerpen, Vlaanderen, 2800, België / Belgique / Belgien","(51.0355255, 4.48328116001429, 0.0)",51.0355255,4.48328116001429,0.0
450.0,,Lamorinierestraat,,2018.0,Antwerpen,Antwerpen,,Y,,,"Lamorinierestraat , Antwerpen, 2018, Belgique","Lamorinièrestraat, Groen Kwartier, Haringrode, Antwerpen, Vlaanderen, 2018, België / Belgique / Belgien","(51.206753, 4.4231305, 0.0)",51.206753,4.4231305,0.0
451.0,,Riderveldlaan,5.0,2018.0,Antwerpen,Antwerpen,,Y,,,"Riderveldlaan 5, Antwerpen, 2018, Belgique",,,,,
455.0,,Schaliehoevestraat ,12.0,2220.0,Heist-Op-Den-Berg,Antwerpen,,,,,"Schaliehoevestraat  12, Antwerpen, 2220, Belgique","12-12A, Schaliehoevestraat, Zone E, Achterheide, Heist-op-den-Berg, Mechelen, Antwerpen, Vlaanderen, 2220, België / Belgique / Belgien","(51.0564627, 4.69937549876453, 0.0)",51.0564627,4.69937549876453,0.0
457.0,,Cipaalstraat ,8.0,2440.0,Geel,Antwerpen,,,,,"Cipaalstraat  8, Antwerpen, 2440, Belgique",,,,,
460.0,,Nekkerspoelstraat,199.0,2800.0,Mechelen,Antwerpen,,,,,"Nekkerspoelstraat 199, Antwerpen, 2800, Belgique","199, Nekkerspoelstraat, Nekkerspoel, Mechelen, Antwerpen, Vlaanderen, 2800, België / Belgique / Belgien","(51.0321215, 4.4977788499999996, 0.0)",51.0321215,4.4977788499999996,0.0
471.0,,Steenweg op Zevendonk ,18.0,2300.0,Turnhout,Antwerpen,,Y,,,"Steenweg op Zevendonk  18, Antwerpen, 2300, Belgique","Sporthal Stadspark, 18, Steenweg op Zevendonk, Schorvoort, Turnhout, Antwerpen, Vlaanderen, 2300, België / Belgique / Belgien","(51.3084446, 4.9479040730835955, 0.0)",51.3084446,4.9479040730835955,0.0
472.0,,Uilenbaan,15.0,2160.0,Wommelgem,Antwerpen,,,,,"Uilenbaan 15, Antwerpen, 2160, Belgique","15, Uilenbaan, Beemdkant, Wommelgem, Antwerpen, Vlaanderen, 2160, België / Belgique / Belgien","(51.21313845, 4.502395060372304, 0.0)",51.21313845,4.502395060372304,0.0
475.0,,Steenweg op Tielen ,51.0,2300.0,Turnhout,Antwerpen,,Y,,,"Steenweg op Tielen  51, Antwerpen, 2300, Belgique","51, Steenweg op Tielen, Everdongen, Turnhout, Antwerpen, Vlaanderen, 2300, België / Belgique / Belgien","(51.302445649999996, 4.934570430596919, 0.0)",51.302445649999996,4.934570430596919,0.0
485.0,,Parklaan ,,2300.0,Turnhout,Antwerpen,,N,,,"Parklaan  , Antwerpen, 2300, Belgique","Parklaan, Blijkhoef, Turnhout, Antwerpen, Vlaanderen, 2300, België / Belgique / Belgien","(51.3124148, 4.944234, 0.0)",51.3124148,4.944234,0.0
488.0,,Motstraat,32.0,2800.0,Mechelen,Antwerpen,,,,,"Motstraat 32, Antwerpen, 2800, Belgique","Plantyn Nv, 30;32, Motstraat, Mechelen, Antwerpen, Vlaanderen, 2800, België / Belgique / Belgien","(51.01371005, 4.489726223451541, 0.0)",51.01371005,4.489726223451541,0.0
489.0,,Zeutestraat ,5.0,2800.0,Mechelen,Antwerpen,,,,,"Zeutestraat  5, Antwerpen, 2800, Belgique","Wolters Kluwer, 5;7, Zeutestraat, Ragheno Business Park, Mechelen, Antwerpen, Vlaanderen, 2800, België / Belgique / Belgien","(51.0102464, 4.492278993573114, 0.0)",51.0102464,4.492278993573114,0.0
498.0,,Laarstraat,16.0,2610.0,Wilrijk,Antwerpen,,,,,"Laarstraat 16, Antwerpen, 2610, Belgique","Teva Pharma Belgium, 16,16A,16C,16D, Laarstraat, Hoogte, Wilrijk, Antwerpen, Vlaanderen, 2610, België / Belgique / Belgien","(51.17400295, 4.395629734141381, 0.0)",51.17400295,4.395629734141381,0.0
517.0,,Nijverheidsstraat,7.0,2260.0,Westerlo,Antwerpen,,Y,,,"Nijverheidsstraat 7, Antwerpen, 2260, Belgique","Henkel Belgium, 7,7A, Nijverheidsstraat, Westerlo-Hoogbuul, Oevel, Westerlo, Turnhout, Antwerpen, Vlaanderen, 2260, België / Belgique / Belgien","(51.13388395, 4.931680015716093, 0.0)",51.13388395,4.931680015716093,0.0
518.0,,Boomsestweg,957.0,2610.0,Wilrijk,Antwerpen,,,,,"Boomsestweg 957, Antwerpen, 2610, Belgique",,,,,
519.0,,Ingberthoeveweg ,7.0,2630.0,Aartselaar,Antwerpen,,,,,"Ingberthoeveweg  7, Antwerpen, 2630, Belgique","Atlas Copco Airpower - Portable Air Division, 7, Ingberthoeveweg, Aartselaar, Antwerpen, Vlaanderen, 2630, België / Belgique / Belgien","(51.1492895, 4.399614895611817, 0.0)",51.1492895,4.399614895611817,0.0
520.0,,Boomsestwg.,957.0,2610.0,Wilrijk,Antwerpen,,,,,"Boomsestwg. 957, Antwerpen, 2610, Belgique","Atlas Copco C7, C6 and EDP, 957, Boomsesteenweg, Neerland, Wilrijk, Antwerpen, Vlaanderen, 2610, België / Belgique / Belgien","(51.1492909, 4.385665088253723, 0.0)",51.1492909,4.385665088253723,0.0
521.0,,Boomsestwg. ,957.0,2610.0,Wilrijk,Antwerpen,,,,,"Boomsestwg.  957, Antwerpen, 2610, Belgique","Atlas Copco C7, C6 and EDP, 957, Boomsesteenweg, Neerland, Wilrijk, Antwerpen, Vlaanderen, 2610, België / Belgique / Belgien","(51.1492909, 4.385665088253723, 0.0)",51.1492909,4.385665088253723,0.0
526.0,,Klaproosstraat ,12.0,2340.0,Beerse,Antwerpen,,,,,"Klaproosstraat  12, Antwerpen, 2340, Belgique","12, Klaproosstraat, Beerse, Turnhout, Antwerpen, Vlaanderen, 2340, België / Belgique / Belgien","(51.3260368, 4.8659607344631794, 0.0)",51.3260368,4.8659607344631794,0.0
532.0,,Grotesteenweg,214.0,2600.0,Berchem,Antwerpen,,,,,"Grotesteenweg 214, Antwerpen, 2600, Belgique","Crelan-AXA Bank, 214, Grotesteenweg, Oud-Berchem, Berchem, Antwerpen, Vlaanderen, 2600, België / Belgique / Belgien","(51.1932989, 4.422431873109934, 0.0)",51.1932989,4.422431873109934,0.0
536.0,,Grote Steenweg ,214.0,2600.0,Berchem,Antwerpen,,,,,"Grote Steenweg  214, Antwerpen, 2600, Belgique","Crelan-AXA Bank, 214, Grotesteenweg, Oud-Berchem, Berchem, Antwerpen, Vlaanderen, 2600, België / Belgique / Belgien","(51.1932989, 4.422431873109934, 0.0)",51.1932989,4.422431873109934,0.0
568.0,,Nijverheidsstraat,9.0,2260.0,OEVEL,Antwerpen,,Y,,,"Nijverheidsstraat 9, Antwerpen, 2260, Belgique","9,9B, Nijverheidsstraat, Westerlo-Hoogbuul, Oevel, Westerlo, Turnhout, Antwerpen, Vlaanderen, 2260, België / Belgique / Belgien","(51.1343083, 4.930470800796512, 0.0)",51.1343083,4.930470800796512,0.0
570.0,,Wilrijkstraat,8.0,2650.0,Edegem,Antwerpen,,,,,"Wilrijkstraat 8, Antwerpen, 2650, Belgique","8, Wilrijkstraat, Borgerhout Intra Muros, Borgerhout, Antwerpen, Vlaanderen, 2140, België / Belgique / Belgien","(51.210038999999995, 4.438178349504806, 0.0)",51.210038999999995,4.438178349504806,0.0
577.0,,Motstraat,40.0,2800.0,Mechelen,Antwerpen,,,,,"Motstraat 40, Antwerpen, 2800, Belgique","40, Motstraat, Mechelen, Antwerpen, Vlaanderen, 2800, België / Belgique / Belgien","(51.0137104, 4.4910135, 0.0)",51.0137104,4.4910135,0.0
580.0,,A. Van Dijckstraat,10.0,2300.0,Turnhout,Antwerpen,,,,,"A. Van Dijckstraat 10, Antwerpen, 2300, Belgique",,,,,
616.0,,Belgiëlei,34.0,2018.0,Antwerpen,Antwerpen,,,,,"Belgiëlei 34, Antwerpen, 2018, Belgique","34, Belgiëlei, Klein-Antwerpen, Antwerpen, Vlaanderen, 2018, België / Belgique / Belgien","(51.2084318, 4.421168905665745, 0.0)",51.2084318,4.421168905665745,0.0
629.0,,Onder den toren  ,5.0,2800.0,Mechelen,Antwerpen,,,,,"Onder den toren   5, Antwerpen, 2800, Belgique","ACV Mechelen, 5A, Onder-den-Toren, Nekkerspoel, Mechelen, Antwerpen, Vlaanderen, 2800, België / Belgique / Belgien","(51.0277644, 4.4768633, 0.0)",51.0277644,4.4768633,0.0
632.0,,Boudewijnstraat,4.0,2280.0,Grobbendonk,Antwerpen,,,,,"Boudewijnstraat 4, Antwerpen, 2280, Belgique","Gemeentehuis Grobbendonk, 4, Boudewijnstraat, Grobbendonk, Turnhout, Antwerpen, Vlaanderen, 2280, België / Belgique / Belgien","(51.19016585, 4.73807909969659, 0.0)",51.19016585,4.73807909969659,0.0
633.0,,Molendreef ,8.0,2280.0,Grobbendonk,Antwerpen,,Y,,,"Molendreef  8, Antwerpen, 2280, Belgique","De Molen, 8, Molendreef, Bouwel, Grobbendonk, Turnhout, Antwerpen, Vlaanderen, 2288, België / Belgique / Belgien","(51.16387885, 4.745147735395027, 0.0)",51.16387885,4.745147735395027,0.0
740.0,,Nijverheidsstraat,15.0,2260.0,Oevel,Antwerpen,,Y,,,"Nijverheidsstraat 15, Antwerpen, 2260, Belgique","13,15, Nijverheidsstraat, Hulshout, Turnhout, Antwerpen, Vlaanderen, 2235, België / Belgique / Belgien","(51.0807301, 4.813293, 0.0)",51.0807301,4.813293,0.0
741.0,,Nijverheidsstraat,15.0,2260.0,OEVEL,Antwerpen,,Y,,,"Nijverheidsstraat 15, Antwerpen, 2260, Belgique","13,15, Nijverheidsstraat, Hulshout, Turnhout, Antwerpen, Vlaanderen, 2235, België / Belgique / Belgien","(51.0807301, 4.813293, 0.0)",51.0807301,4.813293,0.0
804.0,,Liersesteenweg,15.0,2640.0,Mortsel,Antwerpen,,,,,"Liersesteenweg 15, Antwerpen, 2640, Belgique","15, Liersesteenweg, Oude God, Mortsel, Antwerpen, Vlaanderen, 2640, België / Belgique / Belgien","(51.1711091, 4.4606441, 0.0)",51.1711091,4.4606441,0.0
808.0,,Frankrijklei,79.0,2018.0,Antwerpen,Antwerpen,,,,,"Frankrijklei 79, Antwerpen, 2018, Belgique","79, Frankrijklei, Diamant, Centraal Station, Antwerpen-Noord, Antwerpen, Vlaanderen, 2000, België / Belgique / Belgien","(51.2146996, 4.413352382461593, 0.0)",51.2146996,4.413352382461593,0.0
810.0,,St. Cordulastraat,,2900.0,Schoten,Antwerpen,,,,,"St. Cordulastraat , Antwerpen, 2900, Belgique","Sint-Cordulastraat, Schoten, Antwerpen, Vlaanderen, 2900, België / Belgique / Belgien","(51.2508318, 4.4987988, 0.0)",51.2508318,4.4987988,0.0
823.0,,Hombeeksesteenweg ,323.0,2800.0,Mechelen,Antwerpen,,,,,"Hombeeksesteenweg  323, Antwerpen, 2800, Belgique","Procter & Gamble Mechelen, 323, Hombeeksesteenweg, Mechelen, Antwerpen, Vlaanderen, 2800, België / Belgique / Belgien","(51.0144902, 4.4548582, 0.0)",51.0144902,4.4548582,0.0
824.0,,Eggestraat,1.0,2800.0,MECHELEN,Antwerpen,,,,,"Eggestraat 1, Antwerpen, 2800, Belgique","Kellogg's, 1, Eggestraat, Mechelen, Antwerpen, Vlaanderen, 2800, België / Belgique / Belgien","(51.0154768, 4.4642487, 0.0)",51.0154768,4.4642487,0.0
839.0,,Generaal Lemanstraat,69.0,2018.0,Antwerpen,Antwerpen,,,,,"Generaal Lemanstraat 69, Antwerpen, 2018, Belgique","Generaal Lemanstraat, Markgrave, Antwerpen, Vlaanderen, 2018, België / Belgique / Belgien","(51.1954656, 4.4111805, 0.0)",51.1954656,4.4111805,0.0
849.0,,Statiestraat,11.0,2560.0,Nijlen,Antwerpen,,,,,"Statiestraat 11, Antwerpen, 2560, Belgique","Het Gesticht, 11, Statiestraat, Nijlen, Mechelen, Antwerpen, Vlaanderen, 2560, België / Belgique / Belgien","(51.16048925, 4.669047853288278, 0.0)",51.16048925,4.669047853288278,0.0
850.0,,Schoolstraat,30.0,2590.0,Berlaar,Antwerpen,,,,,"Schoolstraat 30, Antwerpen, 2590, Belgique","30, Schoolstraat, Berlaar, Mechelen, Antwerpen, Vlaanderen, 2590, België / Belgique / Belgien","(51.11633755, 4.657917889995822, 0.0)",51.11633755,4.657917889995822,0.0
861.0,,Schoonmansveld,28.0,2870.0,Puurs,Antwerpen,,,,,"Schoonmansveld 28, Antwerpen, 2870, Belgique","28, Schoonmansveld, Ruisbroek, Puurs-Sint-Amands, Mechelen, Antwerpen, Vlaanderen, 2870, België / Belgique / Belgien","(51.066206750000006, 4.333995898592674, 0.0)",51.066206750000006,4.333995898592674,0.0
896.0,,Hoogbul ,1.0,2250.0,Olen,Antwerpen,,Y,,,"Hoogbul  1, Antwerpen, 2250, Belgique",,,,,
967.0,,Paaiestraat,17.0,2500.0,Lier,Antwerpen,,,,,"Paaiestraat 17, Antwerpen, 2500, Belgique","Deufol, 17, Paaiestraat, Lier, Mechelen, Antwerpen, Vlaanderen, 2500, België / Belgique / Belgien","(51.15109675, 4.553323567079522, 0.0)",51.15109675,4.553323567079522,0.0
1008.0,,Gemeentestraat,41.0,2560.0,Nijlen,Antwerpen,,Y,,,"Gemeentestraat 41, Antwerpen, 2560, Belgique","Githo Nijlen, 41, Gemeentestraat, Nijlen, Mechelen, Antwerpen, Vlaanderen, 2560, België / Belgique / Belgien","(51.161699299999995, 4.675132240211543, 0.0)",51.161699299999995,4.675132240211543,0.0
1012.0,,Benzineweg,11.0,2020.0,Antwerpen,Antwerpen,,,,,"Benzineweg 11, Antwerpen, 2020, Belgique","Benzineweg, Antwerpen, Vlaanderen, 2020, België / Belgique / Belgien","(51.1967576, 4.3500219, 0.0)",51.1967576,4.3500219,0.0
1020.0,,Brusselstraat,59.0,2018.0,Antwerpen,Antwerpen,,,,,"Brusselstraat 59, Antwerpen, 2018, Belgique","53,55,59,61, Brusselstraat, Brederode, Antwerpen, Vlaanderen, 2018, België / Belgique / Belgien","(51.20175405, 4.3909690311093055, 0.0)",51.20175405,4.3909690311093055,0.0
1026.0,,Krijgsbaan,,2600.0,Berchem,Antwerpen,,,,,"Krijgsbaan , Antwerpen, 2600, Belgique","Krijgsbaan, Oude God, Mortsel, Antwerpen, Vlaanderen, 2640, België / Belgique / Belgien","(51.1728528, 4.4466653, 0.0)",51.1728528,4.4466653,0.0
1037.0,,Lieven Gevaertstraat,15.0,2950.0,Kapellen,Antwerpen,,Y,,,"Lieven Gevaertstraat 15, Antwerpen, 2950, Belgique","Lieven Gevaertstraat, Zilverenhoek, Hoogboom-Zilverenhoek, Kapellen, Antwerpen, Vlaanderen, 2950, België / Belgique / Belgien","(51.2994224, 4.4360832, 0.0)",51.2994224,4.4360832,0.0
1048.0,,Straatakkers,1.0,2381.0,Ravels,Antwerpen,,,,,"Straatakkers 1, Antwerpen, 2381, Belgique","1-3, Straatakkers, Weelde, Ravels, Turnhout, Antwerpen, Vlaanderen, 2381, België / Belgique / Belgien","(51.41090165, 5.007451323989796, 0.0)",51.41090165,5.007451323989796,0.0
1049.0,,De Wilders,41.0,2382.0,Ravels,Antwerpen,,,,,"De Wilders 41, Antwerpen, 2382, Belgique","41, De Wilders, Poppel, Ravels, Turnhout, Antwerpen, Vlaanderen, 2382, België / Belgique / Belgien","(51.4537463, 5.044553732857061, 0.0)",51.4537463,5.044553732857061,0.0
1071.0,,Industrieweg,3.0,2880.0,Bornem,Antwerpen,,Y,,,"Industrieweg 3, Antwerpen, 2880, Belgique","3, Industrieweg, Bornem, Mechelen, Antwerpen, Vlaanderen, 2880, België / Belgique / Belgien","(51.090824299999994, 4.26102125982521, 0.0)",51.090824299999994,4.26102125982521,0.0
1072.0,,Hombeeksesteenweg ,323.0,2800.0,Mechelen,Antwerpen,,,,,"Hombeeksesteenweg  323, Antwerpen, 2800, Belgique","Procter & Gamble Mechelen, 323, Hombeeksesteenweg, Mechelen, Antwerpen, Vlaanderen, 2800, België / Belgique / Belgien","(51.0144902, 4.4548582, 0.0)",51.0144902,4.4548582,0.0
1087.0,,Luchthavenlei,,2600.0,Berchem,Antwerpen,,,,,"Luchthavenlei , Antwerpen, 2600, Belgique","Luchthavenlei, Deurne, Antwerpen, Vlaanderen, 2100, België / Belgique / Belgien","(51.1899923, 4.4495849, 0.0)",51.1899923,4.4495849,0.0
1088.0,,Motstraat,40.0,2800.0,Mechelen,Antwerpen,,,,,"Motstraat 40, Antwerpen, 2800, Belgique","40, Motstraat, Mechelen, Antwerpen, Vlaanderen, 2800, België / Belgique / Belgien","(51.0137104, 4.4910135, 0.0)",51.0137104,4.4910135,0.0
1107.0,,Kerkstraat,61.0,2970.0,Schilde,Antwerpen,,,,,"Kerkstraat 61, Antwerpen, 2970, Belgique","Zorgcentrum Sint-Lodewijk, 61, Kerkstraat, 's-Gravenwezel, Schilde, Antwerpen, Vlaanderen, 2970, België / Belgique / Belgien","(51.2642163, 4.557556452625996, 0.0)",51.2642163,4.557556452625996,0.0
1108.0,,Schoolstraat,44.0,2970.0,SCHILDE,Antwerpen,,,,,"Schoolstraat 44, Antwerpen, 2970, Belgique","44, Schoolstraat, Berlaar, Mechelen, Antwerpen, Vlaanderen, 2590, België / Belgique / Belgien","(51.11566045, 4.65797701253587, 0.0)",51.11566045,4.65797701253587,0.0
1109.0,,Brasschaatse Baan,30.0,2970.0,SCHILDE,Antwerpen,,,,,"Brasschaatse Baan 30, Antwerpen, 2970, Belgique",,,,,
1110.0,,Pater Nuyenlaan ,70.0,2970.0,SCHILDE,Antwerpen,,,,,"Pater Nuyenlaan  70, Antwerpen, 2970, Belgique",,,,,
1111.0,,De Kaak Wijnegem Steenweg,,2970.0,SCHILDE,Antwerpen,,,,,"De Kaak Wijnegem Steenweg , Antwerpen, 2970, Belgique",,,,,
1125.0,,C. Van Kerkhovenstraat ,110.0,2880.0,Bornem,Antwerpen,,,,,"C. Van Kerkhovenstraat  110, Antwerpen, 2880, Belgique",,,,,
1142.0,,Lange Gasthuisstraat,20.0,2018.0,Antwerpen,Antwerpen,,,,,"Lange Gasthuisstraat 20, Antwerpen, 2018, Belgique","Banque Centrale Anversoise, 20, Lange Gasthuisstraat, Theaterbuurt, Sint-Anna, Antwerpen, Vlaanderen, 2000, België / Belgique / Belgien","(51.21520995, 4.404302244942943, 0.0)",51.21520995,4.404302244942943,0.0
1146.0,,Jozef Van cleemputplein ,,2850.0,Boom,Antwerpen,,,,,"Jozef Van cleemputplein  , Antwerpen, 2850, Belgique","Jozef Van Cleemputplein, Boom, Antwerpen, Vlaanderen, 2850, België / Belgique / Belgien","(51.0892281, 4.371531, 0.0)",51.0892281,4.371531,0.0
1148.0,,St - Jobsteenweg ,120.0,2970.0,Schilde,Antwerpen,,,,,"St - Jobsteenweg  120, Antwerpen, 2970, Belgique","Rinkven, 120, Sint Jobsteenweg, 's-Gravenwezel, Schilde, Antwerpen, Vlaanderen, 2970, België / Belgique / Belgien","(51.2827903, 4.579940007576095, 0.0)",51.2827903,4.579940007576095,0.0
1152.0,,Industriepark ,3.0,2235.0,Hulshout,Antwerpen,,,,,"Industriepark  3, Antwerpen, 2235, Belgique","3, Industriepark, Hulshout, Turnhout, Antwerpen, Vlaanderen, 2235, België / Belgique / Belgien","(51.0833299, 4.8038189, 0.0)",51.0833299,4.8038189,0.0
1166.0,,Onze-Lieve-Vrouwlaan ,1.0,2570.0,Duffel,Antwerpen,,,,,"Onze-Lieve-Vrouwlaan  1, Antwerpen, 2570, Belgique","Onze-Lieve-Vrouwlaan, Kwakkelenberg, Duffel, Mechelen, Antwerpen, Vlaanderen, 2570, België / Belgique / Belgien","(51.0937893, 4.5089029, 0.0)",51.0937893,4.5089029,0.0
1177.0,,Groenenborgerlaan ,171.0,2020.0,Antwerpen,Antwerpen,,,,,"Groenenborgerlaan  171, Antwerpen, 2020, Belgique","171, Groenenborgerlaan, Middelheim, Antwerpen, Vlaanderen, 2020, België / Belgique / Belgien","(51.1781958, 4.4158888, 0.0)",51.1781958,4.4158888,0.0
1178.0,,Grote Kauwenberg,2.0,2020.0,Antwerpen,Antwerpen,,,,,"Grote Kauwenberg 2, Antwerpen, 2020, Belgique","Stadscampus: Agora / Sporthal, 2, Grote Kauwenberg, Universiteitsbuurt, Antwerpen-Noord, Antwerpen, Vlaanderen, 2000, België / Belgique / Belgien","(51.2233349, 4.410990775883231, 0.0)",51.2233349,4.410990775883231,0.0
1225.0,,Spoorwegstraat ,24.0,2300.0,Turnhout,Antwerpen,,Y,,,"Spoorwegstraat  24, Antwerpen, 2300, Belgique","Werkloosheidsbureau Turnhout, 24, Spoorwegstraat, Turnhout, Antwerpen, Vlaanderen, 2300, België / Belgique / Belgien","(51.319053, 4.936485430380484, 0.0)",51.319053,4.936485430380484,0.0
1229.0,,Stationsstraat,,2800.0,Mechelen,Antwerpen,,Y,,,"Stationsstraat , Antwerpen, 2800, Belgique","Stationsstraat, Nekkerspoel, Mechelen, Antwerpen, Vlaanderen, 2800, België / Belgique / Belgien","(51.0192879, 4.484197, 0.0)",51.0192879,4.484197,0.0
1235.0,,Lentestraat ,23.0,2018.0,Antwerpen,Antwerpen,,Y,,,"Lentestraat  23, Antwerpen, 2018, Belgique","23, Lentestraat, Wiekevorst, Heist-op-den-Berg, Mechelen, Antwerpen, Vlaanderen, 2222, België / Belgique / Belgien","(51.10418695, 4.7882978514152255, 0.0)",51.10418695,4.7882978514152255,0.0
1243.0,,Hopland,2.0,2018.0,Antwerpen,Antwerpen,,,,,"Hopland 2, Antwerpen, 2018, Belgique","Horta Grand Café, 2, Hopland, Theaterbuurt, Antwerpen-Noord, Antwerpen, Vlaanderen, 2000, België / Belgique / Belgien","(51.2164144, 4.4093343, 0.0)",51.2164144,4.4093343,0.0
1245.0,,Eiermarkt ,,2018.0,Antwerpen,Antwerpen,,,,,"Eiermarkt  , Antwerpen, 2018, Belgique","Eiermarkt, Historisch Centrum, Sint-Anna, Antwerpen, Vlaanderen, 2000, België / Belgique / Belgien","(51.2188625, 4.404507, 0.0)",51.2188625,4.404507,0.0
1256.0,,Leuvenseweg ,474.0,2812.0,Muizen,Antwerpen,,,,,"Leuvenseweg  474, Antwerpen, 2812, Belgique",,,,,
1261.0,,Distelvinklaan,22.0,2660.0,Hoboken,Antwerpen,,Y,,,"Distelvinklaan 22, Antwerpen, 2660, Belgique","GO! Koninklijk Atheneum Hoboken, 22,22A, Distelvinklaan, Vogeltjeswijk, Hoboken, Antwerpen, Vlaanderen, 2660, België / Belgique / Belgien","(51.16994865, 4.360859475, 0.0)",51.16994865,4.360859475,0.0
1271.0,,Liersesteenweg ,2.0,2800.0,Mechelen,Antwerpen,,,,,"Liersesteenweg  2, Antwerpen, 2800, Belgique","Arresthuis, 2, Liersesteenweg, Nekkerspoel, Mechelen, Antwerpen, Vlaanderen, 2800, België / Belgique / Belgien","(51.0342856, 4.484204511795472, 0.0)",51.0342856,4.484204511795472,0.0
1294.0,,Gemeenteplein ,1.0,2580.0,Putte,Antwerpen,,,,,"Gemeenteplein  1, Antwerpen, 2580, Belgique","1, Gemeenteplein, Putte, Mechelen, Antwerpen, Vlaanderen, 2580, België / Belgique / Belgien","(51.05699195, 4.627953696774755, 0.0)",51.05699195,4.627953696774755,0.0
1295.0,,Mechelbaan ,604.0,2580.0,Putte,Antwerpen,,,,,"Mechelbaan  604, Antwerpen, 2580, Belgique","Gemeenschapscentrum Klein Boom, 604, Mechelbaan, Putte, Mechelen, Antwerpen, Vlaanderen, 2580, België / Belgique / Belgien","(51.05092525, 4.61381540975562, 0.0)",51.05092525,4.61381540975562,0.0
1307.0,,Pastorijstraat ,62.0,2590.0,Berlaar,Antwerpen,,Y,,,"Pastorijstraat  62, Antwerpen, 2590, Belgique","'t Stapveld, 62, Pastorijstraat, Berlaar, Mechelen, Antwerpen, Vlaanderen, 2590, België / Belgique / Belgien","(51.1193642, 4.6686697, 0.0)",51.1193642,4.6686697,0.0
1311.0,,Kerkplaats,,2160.0,Wommelgem,Antwerpen,,,,,"Kerkplaats , Antwerpen, 2160, Belgique","Kerkplaats, Centrum, Wommelgem, Antwerpen, Vlaanderen, 2160, België / Belgique / Belgien","(51.2043973, 4.5230304, 0.0)",51.2043973,4.5230304,0.0
1328.0,,Paradeplein ,1.0,2500.0,LIER,Antwerpen,,Y,,,"Paradeplein  1, Antwerpen, 2500, Belgique","1, Paradeplein, Lier, Mechelen, Antwerpen, Vlaanderen, 2500, België / Belgique / Belgien","(51.132346850000005, 4.561052396226029, 0.0)",51.132346850000005,4.561052396226029,0.0
1339.0,,Burgemeester E.Ryckaertplaats,1.0,2600.0,Berchem,Antwerpen,,,,,"Burgemeester E.Ryckaertplaats 1, Antwerpen, 2600, Belgique",,,,,
1340.0,,Koningin Astridplein,27.0,2018.0,Antwerpen,Antwerpen,,,,,"Koningin Astridplein 27, Antwerpen, 2018, Belgique","Centraal Station, 27, Koningin Astridplein, Statiekwartier, Centraal Station, Antwerpen-Noord, Antwerpen, Vlaanderen, 2018, België / Belgique / Belgien","(51.2162206, 4.421068612450207, 0.0)",51.2162206,4.421068612450207,0.0
1343.0,,Orpheusplein,1.0,2000.0,Antwerpen,Antwerpen,,,,,"Orpheusplein 1, Antwerpen, 2000, Belgique","Zwembad groenenhoek, 1, Orpheusplein, Groenenhoek, Berchem, Antwerpen, Vlaanderen, 2600, België / Belgique / Belgien","(51.1988072, 4.4421487, 0.0)",51.1988072,4.4421487,0.0
1346.0,,Krijgsbaan,20.0,2000.0,Antwerpen,Antwerpen,,,,,"Krijgsbaan 20, Antwerpen, 2000, Belgique","Sportcentrum Sorghvliedt, 20, Krijgsbaan, Vogeltjeswijk, Nachtegalenhof, Hoboken, Antwerpen, Vlaanderen, 2660, België / Belgique / Belgien","(51.1671534, 4.3540291, 0.0)",51.1671534,4.3540291,0.0
1347.0,,Desguinlei ,,2000.0,Antwerpen,Antwerpen,,,,,"Desguinlei  , Antwerpen, 2000, Belgique","Desguinlei, Markgrave, Antwerpen, Vlaanderen, 2018, België / Belgique / Belgien","(51.1967619, 4.3966191, 0.0)",51.1967619,4.3966191,0.0
1353.0,,Wandeldijk,40.0,2000.0,Antwerpen,Antwerpen,,,,,"Wandeldijk 40, Antwerpen, 2000, Belgique","De Molen, 40, Wandeldijk, Linkeroever, Sint-Anna, Antwerpen, Vlaanderen, 2050, België / Belgique / Belgien","(51.234569300000004, 4.393679560997208, 0.0)",51.234569300000004,4.393679560997208,0.0
1376.0,,Steenweg op Gierle,417.0,2300.0,Turnhout,Antwerpen,,N,,,"Steenweg op Gierle 417, Antwerpen, 2300, Belgique","417, Steenweg op Gierle, Turnhout, Antwerpen, Vlaanderen, 2300, België / Belgique / Belgien","(51.3033351, 4.918452711437914, 0.0)",51.3033351,4.918452711437914,0.0
1377.0,,Steenweg op Gierle,417.0,2300.0,TURNHOUT,Antwerpen,,N,,,"Steenweg op Gierle 417, Antwerpen, 2300, Belgique","417, Steenweg op Gierle, Turnhout, Antwerpen, Vlaanderen, 2300, België / Belgique / Belgien","(51.3033351, 4.918452711437914, 0.0)",51.3033351,4.918452711437914,0.0
1383.0,,Balsakker,,2275.0,Lille,Antwerpen,,,,,"Balsakker , Antwerpen, 2275, Belgique","Balsakker, Lille, Turnhout, Antwerpen, Vlaanderen, 2275, België / Belgique / Belgien","(51.2380385, 4.8134128, 0.0)",51.2380385,4.8134128,0.0
1391.0,,Oudaan,,2000.0,Antwerpen,Antwerpen,,Y,,,"Oudaan , Antwerpen, 2000, Belgique","Oudaan, Theaterbuurt, Sint-Anna, Antwerpen, Vlaanderen, 2000, België / Belgique / Belgien","(51.2157784, 4.403142, 0.0)",51.2157784,4.403142,0.0
1416.0,,Montezumalaan,1.0,2200.0,Herentals,Antwerpen,,,,,"Montezumalaan 1, Antwerpen, 2200, Belgique","1, Montezumalaan, Herentals, Turnhout, Antwerpen, Vlaanderen, 2200, België / Belgique / Belgien","(51.176889200000005, 4.807233599276413, 0.0)",51.176889200000005,4.807233599276413,0.0
1419.0,,Tijsmanstunnel West,,2040.0,Antwerpen,Antwerpen,,Y,,,"Tijsmanstunnel West , Antwerpen, 2040, Belgique","Tijsmanstunnel-West, Lillo, Berendrecht-Zandvliet-Lillo, Antwerpen, Vlaanderen, 2040, België / Belgique / Belgien","(51.3025136, 4.3063311, 0.0)",51.3025136,4.3063311,0.0
1423.0,,Koning Albertplein,2.0,2800.0,Mechelen,Antwerpen,,,,,"Koning Albertplein 2, Antwerpen, 2800, Belgique","2, Koning Albertplein, Mechelen, Antwerpen, Vlaanderen, 2800, België / Belgique / Belgien","(51.01750985, 4.482367603711941, 0.0)",51.01750985,4.482367603711941,0.0
1427.0,,Koningin Astridplein,27.0,2018.0,Antwerpen,Antwerpen,,,,,"Koningin Astridplein 27, Antwerpen, 2018, Belgique","Centraal Station, 27, Koningin Astridplein, Statiekwartier, Centraal Station, Antwerpen-Noord, Antwerpen, Vlaanderen, 2018, België / Belgique / Belgien","(51.2162206, 4.421068612450207, 0.0)",51.2162206,4.421068612450207,0.0
1428.0,,Guldenstraat,18.0,2800.0,Mechelen,Antwerpen,,,,,"Guldenstraat 18, Antwerpen, 2800, Belgique","18, Guldenstraat, Nekkerspoel, Mechelen, Antwerpen, Vlaanderen, 2800, België / Belgique / Belgien","(51.025485700000004, 4.476775380035745, 0.0)",51.025485700000004,4.476775380035745,0.0
1430.0,,Zeevaartstraat,11.0,2000.0,Antwerpen,Antwerpen,,,,,"Zeevaartstraat 11, Antwerpen, 2000, Belgique","11, Zeevaartstraat, Galgenberg, Mechelen, Antwerpen, Vlaanderen, 2800, België / Belgique / Belgien","(51.0412349, 4.461868196674391, 0.0)",51.0412349,4.461868196674391,0.0
1431.0,,Burg E. Ryckaertsplein,2.0,2600.0,Berchem,Antwerpen,,,,,"Burg E. Ryckaertsplein 2, Antwerpen, 2600, Belgique","1-2, Burgemeester E. Ryckaertsplein, Zurenborg, Berchem, Antwerpen, Vlaanderen, 2000, België / Belgique / Belgien","(51.20016955, 4.432701106542972, 0.0)",51.20016955,4.432701106542972,0.0
1432.0,,Korte Klarenstraat,10.0,2000.0,Antwerpen,Antwerpen,,,,,"Korte Klarenstraat 10, Antwerpen, 2000, Belgique","Q-Park Shopping Meir, 10, Korte Klarenstraat, Meir, Sint-Anna, Antwerpen, Vlaanderen, 2000, België / Belgique / Belgien","(51.2189476, 4.407277904735329, 0.0)",51.2189476,4.407277904735329,0.0
1456.0,,Antwerpsestraat,145.0,2500.0,LIER,Antwerpen,,Y,,,"Antwerpsestraat 145, Antwerpen, 2500, Belgique","145, Antwerpsestraat, Lier, Mechelen, Antwerpen, Vlaanderen, 2500, België / Belgique / Belgien","(51.13464265, 4.564967153974129, 0.0)",51.13464265,4.564967153974129,0.0
1461.0,,Bormstraat,24.0,2830.0,Tisselt,Antwerpen,,,,,"Bormstraat 24, Antwerpen, 2830, Belgique","Bormstraat, Tisselt, Willebroek, Mechelen, Antwerpen, Vlaanderen, 2830, België / Belgique / Belgien","(51.0183582, 4.3591881, 0.0)",51.0183582,4.3591881,0.0
1463.0,,Industriepark,7.0,2220.0,Heist-Op-Den-Berg,Antwerpen,,,,,"Industriepark 7, Antwerpen, 2220, Belgique","7, Industriepark, Hulshout, Turnhout, Antwerpen, Vlaanderen, 2235, België / Belgique / Belgien","(51.084095649999995, 4.8055748577661515, 0.0)",51.084095649999995,4.8055748577661515,0.0
1464.0,,Industriepark,7.0,2220.0,HEIST-OP-DEN-BERG,Antwerpen,,,,,"Industriepark 7, Antwerpen, 2220, Belgique","7, Industriepark, Hulshout, Turnhout, Antwerpen, Vlaanderen, 2235, België / Belgique / Belgien","(51.084095649999995, 4.8055748577661515, 0.0)",51.084095649999995,4.8055748577661515,0.0
1465.0,,Hoofd,1.0,2830.0,Willebroek,Antwerpen,,Y,,,"Hoofd 1, Antwerpen, 2830, Belgique","Keppel Seghers, 1, Hoofd, Klein-Willebroek, Willebroek, Mechelen, Antwerpen, Vlaanderen, 2830, België / Belgique / Belgien","(51.08162145, 4.365870115536627, 0.0)",51.08162145,4.365870115536627,0.0
1480.0,,Terlochtweg ,1.0,2620.0,Hemiksem,Antwerpen,,Y,,,"Terlochtweg  1, Antwerpen, 2620, Belgique","Terlochtweg, Calding, Hemiksem, Antwerpen, Vlaanderen, 2620, België / Belgique / Belgien","(51.1511372, 4.3368433, 0.0)",51.1511372,4.3368433,0.0
1485.0,,Noorderlaan,395.0,2030.0,Antwerpen,Antwerpen,,,,,"Noorderlaan 395, Antwerpen, 2030, Belgique","Bpost sorteercentrum Antwerpen X, 395, Noorderlaan, Antwerpen, Vlaanderen, 2030, België / Belgique / Belgien","(51.2864133, 4.382813053728325, 0.0)",51.2864133,4.382813053728325,0.0
1489.0,,Toekomstlaan,54.0,2200.0,Herentals,Antwerpen,,,,,"Toekomstlaan 54, Antwerpen, 2200, Belgique","54, Toekomstlaan, Wolfstee, Herentals, Turnhout, Antwerpen, Vlaanderen, 2200, België / Belgique / Belgien","(51.168104549999995, 4.789436240605743, 0.0)",51.168104549999995,4.789436240605743,0.0
1490.0,,Toekomstlaan,45.0,2200.0,HERENTALS,Antwerpen,,,,,"Toekomstlaan 45, Antwerpen, 2200, Belgique","45, Toekomstlaan, Wolfstee, Herentals, Turnhout, Antwerpen, Vlaanderen, 2200, België / Belgique / Belgien","(51.16668625, 4.790167039280697, 0.0)",51.16668625,4.790167039280697,0.0
1491.0,,Toekomstlaan,54.0,2200.0,HERENTALS,Antwerpen,,,,,"Toekomstlaan 54, Antwerpen, 2200, Belgique","54, Toekomstlaan, Wolfstee, Herentals, Turnhout, Antwerpen, Vlaanderen, 2200, België / Belgique / Belgien","(51.168104549999995, 4.789436240605743, 0.0)",51.168104549999995,4.789436240605743,0.0
1509.0,,Kontichsesteenweg ,25.0,2630.0,Aartselaar,Antwerpen,,Y,,,"Kontichsesteenweg  25, Antwerpen, 2630, Belgique","Equans, 25, Kontichsesteenweg, Aartselaar, Antwerpen, Vlaanderen, 2630, België / Belgique / Belgien","(51.14344015, 4.384414381633512, 0.0)",51.14344015,4.384414381633512,0.0
1510.0,,Haven 1036 Vitshoekstraat,5.0,2070.0,Zwijndrecht,Antwerpen,,Y,,,"Haven 1036 Vitshoekstraat 5, Antwerpen, 2070, Belgique",,,,,
1526.0,,Steenweg op Wortel,,2330.0,Merksplas,Antwerpen,,Y,,,"Steenweg op Wortel , Antwerpen, 2330, Belgique","Steenweg op Wortel, Merksplas-Kolonie, Merksplas, Turnhout, Antwerpen, Vlaanderen, 2330, België / Belgique / Belgien","(51.3628389, 4.8272705, 0.0)",51.3628389,4.8272705,0.0
1530.0,,Bevrijdingsstraat,1.0,2490.0,Balen,Antwerpen,,Y,,,"Bevrijdingsstraat 1, Antwerpen, 2490, Belgique","Bib van Balen, 1, Bevrijdingsstraat, Balen, Turnhout, Antwerpen, Vlaanderen, 2490, België / Belgique / Belgien","(51.17103135, 5.163835118024743, 0.0)",51.17103135,5.163835118024743,0.0
1531.0,,17de Escadrille Lichtvliegwe Straat,14.0,2490.0,BALEN,Antwerpen,,Y,,,"17de Escadrille Lichtvliegwe Straat 14, Antwerpen, 2490, Belgique",,,,,
1532.0,,Hoolsterberg,36.0,2490.0,BALEN,Antwerpen,,,,,"Hoolsterberg 36, Antwerpen, 2490, Belgique","Sportcomplex Bleukens, 36, Hoolsterberg, Scheps, Balen, Turnhout, Antwerpen, Vlaanderen, 2490, België / Belgique / Belgien","(51.16020665, 5.1622670944692555, 0.0)",51.16020665,5.1622670944692555,0.0
1533.0,,Schoolstraat ,,2491.0,Olmen,Antwerpen,,y,,,"Schoolstraat  , Antwerpen, 2491, Belgique","Schoolstraat, Olmen, Balen, Turnhout, Antwerpen, Vlaanderen, 2491, België / Belgique / Belgien","(51.141253, 5.1511816, 0.0)",51.141253,5.1511816,0.0
1534.0,,Vredelaan ,1.0,2490.0,BALEN,Antwerpen,,Y,,,"Vredelaan  1, Antwerpen, 2490, Belgique","Gemeentehuis Balen, 1, Vredelaan, Balen, Turnhout, Antwerpen, Vlaanderen, 2490, België / Belgique / Belgien","(51.1719526, 5.1751498, 0.0)",51.1719526,5.1751498,0.0
1545.0,,Rouaanse Kaai,4.0,2000.0,Antwerpen,Antwerpen,,,,,"Rouaanse Kaai 4, Antwerpen, 2000, Belgique","4, Rouaanse Kaai, Schipperskwartier, Sint-Anna, Antwerpen, Vlaanderen, 2000, België / Belgique / Belgien","(51.22661705, 4.4015259356613665, 0.0)",51.22661705,4.4015259356613665,0.0
1546.0,,Industrieweg ,3.0,2390.0,Malle,Antwerpen,,,,,"Industrieweg  3, Antwerpen, 2390, Belgique","Ecover, 3, Industrieweg, Oostmalle, Malle, Antwerpen, Vlaanderen, 2390, België / Belgique / Belgien","(51.29531365, 4.717441422958526, 0.0)",51.29531365,4.717441422958526,0.0
1547.0,,Steenovenstraat,,2390.0,MALLE,Antwerpen,,Y,,,"Steenovenstraat , Antwerpen, 2390, Belgique","Steenovenstraat, Oostmalle, Malle, Antwerpen, Vlaanderen, 2390, België / Belgique / Belgien","(51.3028792, 4.709199, 0.0)",51.3028792,4.709199,0.0
1562.0,,Nijverheidsstraat,16.0,2260.0,Westerlo,Antwerpen,,Y,,,"Nijverheidsstraat 16, Antwerpen, 2260, Belgique","16, Nijverheidsstraat, Westerlo-Hoogbuul, Oevel, Westerlo, Turnhout, Antwerpen, Vlaanderen, 2260, België / Belgique / Belgien","(51.140084900000005, 4.9193569462344655, 0.0)",51.140084900000005,4.9193569462344655,0.0
1563.0,,Nijverheidsstraat,16.0,2260.0,WESTERLO,Antwerpen,,Y,,,"Nijverheidsstraat 16, Antwerpen, 2260, Belgique","16, Nijverheidsstraat, Westerlo-Hoogbuul, Oevel, Westerlo, Turnhout, Antwerpen, Vlaanderen, 2260, België / Belgique / Belgien","(51.140084900000005, 4.9193569462344655, 0.0)",51.140084900000005,4.9193569462344655,0.0
1564.0,,Nijverheidsstraat,16.0,2260.0,WESTERLO,Antwerpen,,Y,,,"Nijverheidsstraat 16, Antwerpen, 2260, Belgique","16, Nijverheidsstraat, Westerlo-Hoogbuul, Oevel, Westerlo, Turnhout, Antwerpen, Vlaanderen, 2260, België / Belgique / Belgien","(51.140084900000005, 4.9193569462344655, 0.0)",51.140084900000005,4.9193569462344655,0.0
1565.0,,Nijverheidsstraat,16.0,2260.0,WESTERLO,Antwerpen,,Y,,,"Nijverheidsstraat 16, Antwerpen, 2260, Belgique","16, Nijverheidsstraat, Westerlo-Hoogbuul, Oevel, Westerlo, Turnhout, Antwerpen, Vlaanderen, 2260, België / Belgique / Belgien","(51.140084900000005, 4.9193569462344655, 0.0)",51.140084900000005,4.9193569462344655,0.0
1571.0,,Franscontinentaalweg,12.0,2030.0,Antwerpen,Antwerpen,,,,,"Franscontinentaalweg 12, Antwerpen, 2030, Belgique",,,,,
1572.0,,Transcontinentaalweg,10.0,2030.0,Antwerpen,Antwerpen,,,,,"Transcontinentaalweg 10, Antwerpen, 2030, Belgique","10, Transcontinentaalweg, Luithagen, Antwerpen, Vlaanderen, 2030, België / Belgique / Belgien","(51.27436915, 4.389605074149433, 0.0)",51.27436915,4.389605074149433,0.0
1574.0,,Mechelsesteenweg,120.0,2860.0,Sint-Katelijne-Waver,Antwerpen,,Y,,,"Mechelsesteenweg 120, Antwerpen, 2860, Belgique","120, Mechelsesteenweg, Sint-Katelijne-Waver, Mechelen, Antwerpen, Vlaanderen, 2860, België / Belgique / Belgien","(51.058745, 4.521238092085159, 0.0)",51.058745,4.521238092085159,0.0
1575.0,,Nieuwe weg 1 haven,1053.0,2070.0,Zwijndrecht,Antwerpen,,N,,,"Nieuwe weg 1 haven 1053, Antwerpen, 2070, Belgique",,,,,
1577.0,,J. Van Rijswijcklaan,191.0,2020.0,Antwerpen,Antwerpen,,Y,,,"J. Van Rijswijcklaan 191, Antwerpen, 2020, Belgique","Jan Van Rijswijcklaan, Kiel, Antwerpen, Vlaanderen, 2020, België / Belgique / Belgien","(51.184635, 4.3904513, 0.0)",51.184635,4.3904513,0.0
1589.0,,Lodderstraat,16.0,2880.0,Bornem,Antwerpen,,,,,"Lodderstraat 16, Antwerpen, 2880, Belgique","16, Lodderstraat, Hingene, Bornem, Mechelen, Antwerpen, Vlaanderen, 2880, België / Belgique / Belgien","(51.08576745, 4.278968372303661, 0.0)",51.08576745,4.278968372303661,0.0
1630.0,,Wommelgemsesteenweg,18.0,2110.0,Wijnegem,Antwerpen,,,,,"Wommelgemsesteenweg 18, Antwerpen, 2110, Belgique","18, Wommelgemsesteenweg, Vremde, Boechout, Antwerpen, Vlaanderen, 2531, België / Belgique / Belgien","(51.177010100000004, 4.526191284279825, 0.0)",51.177010100000004,4.526191284279825,0.0
1646.0,,Visbeekstraat,,2300.0,Turnhout,Antwerpen,,,,,"Visbeekstraat , Antwerpen, 2300, Belgique","Visbeekstraat, Turnhout, Antwerpen, Vlaanderen, 2300, België / Belgique / Belgien","(51.3059104, 4.9106567, 0.0)",51.3059104,4.9106567,0.0
1649.0,,Victor Dumonlaan ,28.0,2830.0,Willebroek,Antwerpen,,N,,,"Victor Dumonlaan  28, Antwerpen, 2830, Belgique","Victor Dumonlaan, Willebroek, Mechelen, Antwerpen, Vlaanderen, 2830, België / Belgique / Belgien","(51.0741113, 4.3671474, 0.0)",51.0741113,4.3671474,0.0
1650.0,,Kern,18.0,2610.0,Wilrijk,Antwerpen,,Y,,,"Kern 18, Antwerpen, 2610, Belgique","18-27, Kern, Wilrijk, Antwerpen, Vlaanderen, 2610, België / Belgique / Belgien","(51.17117225, 4.393468500000001, 0.0)",51.17117225,4.393468500000001,0.0
1651.0,,Bist,1.0,2610.0,Wilrijk,Antwerpen,,Y,,,"Bist 1, Antwerpen, 2610, Belgique","Bibliotheek Bist, 1, Bist, Wilrijk, Antwerpen, Vlaanderen, 2610, België / Belgique / Belgien","(51.1692565, 4.3936274, 0.0)",51.1692565,4.3936274,0.0
1655.0,,P. Verhaertstraat,7.0,2250.0,Olen,Antwerpen,,,,,"P. Verhaertstraat 7, Antwerpen, 2250, Belgique","Sporthal Olen, 7, P. Verhaertstraat, Onze-Lieve-Vrouw-Olen, Olen, Turnhout, Antwerpen, Vlaanderen, 2250, België / Belgique / Belgien","(51.167898300000004, 4.903270084918512, 0.0)",51.167898300000004,4.903270084918512,0.0
1685.0,,Uitbreidingsstraat,3.0,2600.0,Berchem,Antwerpen,,,,,"Uitbreidingsstraat 3, Antwerpen, 2600, Belgique","3, Uitbreidingsstraat, Boom, Antwerpen, Vlaanderen, 2850, België / Belgique / Belgien","(51.1044795, 4.36658449471823, 0.0)",51.1044795,4.36658449471823,0.0
1690.0,,Schaliënhoevedreef,201.0,2800.0,Mechelen,Antwerpen,,,,,"Schaliënhoevedreef 201, Antwerpen, 2800, Belgique","Schaliënhoevedreef, Otterbeek, Mechelen, Antwerpen, Vlaanderen, 2800, België / Belgique / Belgien","(51.0552989, 4.4614376, 0.0)",51.0552989,4.4614376,0.0
1707.0,,Meistraat,4.0,2000.0,Antwerpen,Antwerpen,,,,,"Meistraat 4, Antwerpen, 2000, Belgique","4, Meistraat, Hombeek, Mechelen, Antwerpen, Vlaanderen, 2811, België / Belgique / Belgien","(51.007106050000004, 4.41474875000001, 0.0)",51.007106050000004,4.41474875000001,0.0
1708.0,,Van Estbornstraat,13.0,2060.0,Antwerpen,Antwerpen,,,,,"Van Estbornstraat 13, Antwerpen, 2060, Belgique",,,,,
1718.0,,Breendonkdorp,58.0,2870.0,BREENDONK,Antwerpen,,,,,"Breendonkdorp 58, Antwerpen, 2870, Belgique",,,,,
1728.0,,Eggestraat,1.0,2800.0,Mechelen,Antwerpen,,,,,"Eggestraat 1, Antwerpen, 2800, Belgique","Kellogg's, 1, Eggestraat, Mechelen, Antwerpen, Vlaanderen, 2800, België / Belgique / Belgien","(51.0154768, 4.4642487, 0.0)",51.0154768,4.4642487,0.0
1763.0,,Battelsesteenweg,315.0,2800.0,Mechelen,Antwerpen, inkom gebouw,Y,,,"Battelsesteenweg 315, Antwerpen, 2800, Belgique","315, Battelsesteenweg, Marokken, Battel, Mechelen, Antwerpen, Vlaanderen, 2800, België / Belgique / Belgien","(51.03259425, 4.456983197080859, 0.0)",51.03259425,4.456983197080859,0.0
1776.0,,Electronicalaan,,2610.0,Wilrijk,Antwerpen, ingang productie,Y,,,"Electronicalaan , Antwerpen, 2610, Belgique",,,,,
1777.0,,Dynamicalaan,18.0,2610.0,Wilrijk,Antwerpen, ingang productie,Y,,,"Dynamicalaan 18, Antwerpen, 2610, Belgique","Dynamicalaan, Terbekehof, Wilrijk, Antwerpen, Vlaanderen, 2610, België / Belgique / Belgien","(51.1563422, 4.3779183, 0.0)",51.1563422,4.3779183,0.0
1778.0,,Terbekenhofdreef,30.0,2610.0,Wilrijk,Antwerpen, ingang productie,Y,,,"Terbekenhofdreef 30, Antwerpen, 2610, Belgique",,,,,
1779.0,,Rooienberg,,2570.0,Duffel,Antwerpen, buiten aan ingang,,,,"Rooienberg , Antwerpen, 2570, Belgique","Rooienberg, Duffel, Mechelen, Antwerpen, Vlaanderen, 2570, België / Belgique / Belgien","(51.0958669, 4.4905578, 0.0)",51.0958669,4.4905578,0.0
1783.0,,L. Van Regenmortellei,6.0,2150.0,Borsbeek,Antwerpen, gevel buiten,Y,,,"L. Van Regenmortellei 6, Antwerpen, 2150, Belgique",,,,,
1784.0,,Dijleweg ,,2820.0,Rijmenam,Antwerpen,zij ingang spelers- en inkomhal,Y,,,"Dijleweg  , Antwerpen, 2820, Belgique","Dijleweg, Rijmenam, Bonheiden, Mechelen, Antwerpen, Vlaanderen, 2820, België / Belgique / Belgien","(51.0008423, 4.5829482, 0.0)",51.0008423,4.5829482,0.0
1785.0,,Mechelsbroekstraat,4.0,2820.0,Bonheiden,Antwerpen, naast inkompoort,Y,,,"Mechelsbroekstraat 4, Antwerpen, 2820, Belgique","4, Mechelsbroekstraat, Bonheiden, Mechelen, Antwerpen, Vlaanderen, 2820, België / Belgique / Belgien","(51.02759675, 4.5231234, 0.0)",51.02759675,4.5231234,0.0
1786.0,,Morrensplein,10.0,2820.0,Bonheiden,Antwerpen, tss biblioth en cultuurcentr,Y,,,"Morrensplein 10, Antwerpen, 2820, Belgique","Jacques Morrensplein, Bonheiden, Mechelen, Antwerpen, Vlaanderen, 2820, België / Belgique / Belgien","(51.025128699999996, 4.548746938414423, 0.0)",51.025128699999996,4.548746938414423,0.0
1787.0,,Eisenhouwerlaan,,2820.0,Bonheiden,Antwerpen, inkomloket voetbal,Y,,,"Eisenhouwerlaan , Antwerpen, 2820, Belgique",,,,,
1788.0,,Waversesteenweg,,2820.0,Bonheiden,Antwerpen, inkomhal sporthal,Y,,,"Waversesteenweg , Antwerpen, 2820, Belgique","Waversesteenweg, Bonheiden, Mechelen, Antwerpen, Vlaanderen, 2820, België / Belgique / Belgien","(51.0257245, 4.5489366, 0.0)",51.0257245,4.5489366,0.0
1789.0,,St. Maartensberg ,,2820.0,Bonheiden,Antwerpen,nst inrijpoort gemeenschpscentr,Y,,,"St. Maartensberg  , Antwerpen, 2820, Belgique","Sint-Maartensberg, Rijmenam, Bonheiden, Mechelen, Antwerpen, Vlaanderen, 2820, België / Belgique / Belgien","(51.0011909, 4.5841113, 0.0)",51.0011909,4.5841113,0.0
1791.0,,Covelierstraat,15.0,2600.0,Berchem,Antwerpen, 3e verd infobalie,,,,"Covelierstraat 15, Antwerpen, 2600, Belgique",,,,,
1811.0,,Meester van der Borghtstraat,150.0,2580.0,Putte,Antwerpen,ingang,,,,"Meester van der Borghtstraat 150, Antwerpen, 2580, Belgique","150, Meester van der Borghtstraat, Putte, Mechelen, Antwerpen, Vlaanderen, 2580, België / Belgique / Belgien","(51.02706165, 4.656230056113564, 0.0)",51.02706165,4.656230056113564,0.0
1815.0,,Oude Liersebaan,4.0,2390.0,Malle,Antwerpen,Neurologie,y,,,"Oude Liersebaan 4, Antwerpen, 2390, Belgique","H, 4, Andreas Vesaliuslaan - Oude Liersebaan, Westmalle, Malle, Antwerpen, Vlaanderen, 2390, België / Belgique / Belgien","(51.274945450000004, 4.643854807861932, 0.0)",51.274945450000004,4.643854807861932,0.0
1816.0,,Oude Liersebaan,4.0,2390.0,MALLE,Antwerpen,Geriaterie,Y,,,"Oude Liersebaan 4, Antwerpen, 2390, Belgique","H, 4, Andreas Vesaliuslaan - Oude Liersebaan, Westmalle, Malle, Antwerpen, Vlaanderen, 2390, België / Belgique / Belgien","(51.274945450000004, 4.643854807861932, 0.0)",51.274945450000004,4.643854807861932,0.0
1817.0,,Oude Liersebaan,4.0,2390.0,MALLE,Antwerpen,Ortho,Y,,,"Oude Liersebaan 4, Antwerpen, 2390, Belgique","H, 4, Andreas Vesaliuslaan - Oude Liersebaan, Westmalle, Malle, Antwerpen, Vlaanderen, 2390, België / Belgique / Belgien","(51.274945450000004, 4.643854807861932, 0.0)",51.274945450000004,4.643854807861932,0.0
1818.0,,Oude Liersebaan,4.0,2390.0,MALLE,Antwerpen,SP Dienst,Y,,,"Oude Liersebaan 4, Antwerpen, 2390, Belgique","H, 4, Andreas Vesaliuslaan - Oude Liersebaan, Westmalle, Malle, Antwerpen, Vlaanderen, 2390, België / Belgique / Belgien","(51.274945450000004, 4.643854807861932, 0.0)",51.274945450000004,4.643854807861932,0.0
1820.0,,Rubensstraat,160.0,2300.0,Turnhout,Antwerpen,"glvl, spoedafdeling",Y,,,"Rubensstraat 160, Antwerpen, 2300, Belgique","160, Rubensstraat, Blijkhoef, Turnhout, Antwerpen, Vlaanderen, 2300, België / Belgique / Belgien","(51.31411335, 4.943737007632642, 0.0)",51.31411335,4.943737007632642,0.0
1853.0,,Grote Markt,1.0,2300.0,Turnhout,Antwerpen, onthaal,Y,,,"Grote Markt 1, Antwerpen, 2300, Belgique","Stadhuis Turnhout, 1,2, Grote Markt, Turnhout, Antwerpen, Vlaanderen, 2300, België / Belgique / Belgien","(51.32318835, 4.9474834832315775, 0.0)",51.32318835,4.9474834832315775,0.0
1854.0,,Campus Blairon,200.0,2300.0,TURNHOUT,Antwerpen, onthaal,Y,,,"Campus Blairon 200, Antwerpen, 2300, Belgique","Stadskantoor Turnhout, 200, Campus Blairon, Turnhout, Antwerpen, Vlaanderen, 2300, België / Belgique / Belgien","(51.3159617, 4.929813655386205, 0.0)",51.3159617,4.929813655386205,0.0
1858.0,,Leo Bosschartlaan,1.0,2660.0,Hoboken,Antwerpen, sasgedeelte voor EHBO lok,,,,"Leo Bosschartlaan 1, Antwerpen, 2660, Belgique","1, Leo Bosschartlaan, Hertogvelden, Hoboken-West, Hoboken, Antwerpen, Vlaanderen, 2660, België / Belgique / Belgien","(51.1737021, 4.335784523166588, 0.0)",51.1737021,4.335784523166588,0.0
1865.0,,Kipdorp,57.0,2000.0,Antwerpen,Antwerpen,1st verdieping,Y,,,"Kipdorp 57, Antwerpen, 2000, Belgique","ICL, 57, Kipdorp, Universiteitsbuurt, Antwerpen-Noord, Antwerpen, Vlaanderen, 2000, België / Belgique / Belgien","(51.2208193, 4.4094228, 0.0)",51.2208193,4.4094228,0.0
1871.0,,Noorderlaan,127.0,2030.0,Antwerpen,Antwerpen, glvl nabij ingang lift,Y,,,"Noorderlaan 127, Antwerpen, 2030, Belgique","JE Jacobs, 127,127A, Noorderlaan, Antwerpen, Vlaanderen, 2030, België / Belgique / Belgien","(51.263516499999994, 4.409710596043055, 0.0)",51.263516499999994,4.409710596043055,0.0
1880.0,,Posthofbrug,10.0,2600.0,Berchem,Antwerpen,3 de verd vergaderzaal ,Y,,,"Posthofbrug 10, Antwerpen, 2600, Belgique","10, Posthofbrug, De Veldekens, Nieuw Kwartier, Berchem, Antwerpen, Vlaanderen, 2600, België / Belgique / Belgien","(51.194257050000004, 4.434668349999991, 0.0)",51.194257050000004,4.434668349999991,0.0
1881.0,Appareil fixe-Vast apparaat,Battelsesteenweg,315.0,2800.0,Mechelen,Antwerpen,nvt - mobiel AED-toestel gebruikt voor EHBO-hulpposten,Non-Nee,Non-Nee,nvt,"Battelsesteenweg 315, Antwerpen, 2800, Belgique","315, Battelsesteenweg, Marokken, Battel, Mechelen, Antwerpen, Vlaanderen, 2800, België / Belgique / Belgien","(51.03259425, 4.456983197080859, 0.0)",51.03259425,4.456983197080859,0.0
1913.0,,Zaha Hadidplein,1.0,2030.0,Antwerpen,Antwerpen,,,,,"Zaha Hadidplein 1, Antwerpen, 2030, Belgique","Havenhuis, 1, Zaha Hadidplein, Eilandje, Antwerpen, Vlaanderen, 2030, België / Belgique / Belgien","(51.241121050000004, 4.4075539284596, 0.0)",51.241121050000004,4.4075539284596,0.0
1914.0,,Loodglansstraat,5.0,2030.0,Antwerpen,Antwerpen,"Gebouw A, glkvl. Verd.",,,,"Loodglansstraat 5, Antwerpen, 2030, Belgique","Havenbedrijf, 3,5, Loodglansstraat, Antwerpen, Vlaanderen, 2030, België / Belgique / Belgien","(51.2452701, 4.40850743649012, 0.0)",51.2452701,4.40850743649012,0.0
1915.0,,Hanzestedenplaats,19.0,2000.0,Antwerpen,Antwerpen,"glvl, achter bergingsdeur",,,,"Hanzestedenplaats 19, Antwerpen, 2000, Belgique","Portopolis, 19, Hanzestedenplaats, Nieuwstad-Cadix, Eilandje, Sint-Anna, Antwerpen, Vlaanderen, 2000, België / Belgique / Belgien","(51.2286127, 4.4053446, 0.0)",51.2286127,4.4053446,0.0
1916.0,,Droogdokkenweg,4.0,2030.0,Antwerpen,Antwerpen," glvl, trappenhal naar secr.",,,,"Droogdokkenweg 4, Antwerpen, 2030, Belgique","Stormkop, 4, Droogdokkenweg, Nieuwstad-Cadix, Eilandje, Antwerpen, Vlaanderen, 2030, België / Belgique / Belgien","(51.2366225, 4.4038747, 0.0)",51.2366225,4.4038747,0.0
1917.0,,Kauwenstein ,,2030.0,Antwerpen,Antwerpen,centr. Dienstengeb. 1e verd. Traphal,,,,"Kauwenstein  , Antwerpen, 2030, Belgique","Kauwenstein, Antwerpen, Vlaanderen, 2030, België / Belgique / Belgien","(51.2785211, 4.3300418, 0.0)",51.2785211,4.3300418,0.0
1918.0,,Blauwhoefstraat,11.0,2040.0,Antwerpen,Antwerpen,"werkhuis, glvl, EHBO lok",,,,"Blauwhoefstraat 11, Antwerpen, 2040, Belgique","Blauwhoefstraat, Lillo, Berendrecht-Zandvliet-Lillo, Antwerpen, Vlaanderen, 2040, België / Belgique / Belgien","(51.3078869, 4.327257, 0.0)",51.3078869,4.327257,0.0
1919.0,,Potpolderweg ,,2040.0,Antwerpen,Antwerpen,"gebouw A, glvl, inkomhal EHBO lok",,,,"Potpolderweg  , Antwerpen, 2040, Belgique","Potpolderweg, Berendrecht, Berendrecht-Zandvliet-Lillo, Antwerpen, Vlaanderen, 2040, België / Belgique / Belgien","(51.3448353, 4.2863934, 0.0)",51.3448353,4.2863934,0.0
1926.0,,Beddenstraat,2.0,2000.0,Antwerpen,Antwerpen,nabij onthaal,,,,"Beddenstraat 2, Antwerpen, 2000, Belgique","2, Beddenstraat, Historisch Centrum, Sint-Anna, Antwerpen, Vlaanderen, 2000, België / Belgique / Belgien","(51.21924865, 4.402945701701659, 0.0)",51.21924865,4.402945701701659,0.0
1927.0,,Hofstraat,8.0,2950.0,Kapellen,Antwerpen,nabij onthaal,,,,"Hofstraat 8, Antwerpen, 2950, Belgique","8,8A, Hofstraat, Kapellen, Antwerpen, Vlaanderen, 2950, België / Belgique / Belgien","(51.31262985, 4.431267865437172, 0.0)",51.31262985,4.431267865437172,0.0
1929.0,,Liersesteenweg,,2640.0,Mortsel,Antwerpen,nabij onthaal,,,,"Liersesteenweg , Antwerpen, 2640, Belgique","Liersesteenweg, Mortsel, Antwerpen, Vlaanderen, 2640, België / Belgique / Belgien","(51.1693038, 4.4651341, 0.0)",51.1693038,4.4651341,0.0
1930.0,,Statiestraat,,2400.0,Mol,Antwerpen,nabij onthaal,,,,"Statiestraat , Antwerpen, 2400, Belgique","Statiestraat, Mol, Turnhout, Antwerpen, Vlaanderen, 2400, België / Belgique / Belgien","(51.1883134, 5.1190103, 0.0)",51.1883134,5.1190103,0.0
1934.0,,Korte Gasthuisstraat,38.0,2300.0,Turnhout,Antwerpen,nabij onthaal,,,,"Korte Gasthuisstraat 38, Antwerpen, 2300, Belgique","Carrefour Market, 38, Korte Gasthuisstraat, Turnhout, Antwerpen, Vlaanderen, 2300, België / Belgique / Belgien","(51.3201026, 4.943804987265261, 0.0)",51.3201026,4.943804987265261,0.0
1939.0,,Prins Boudewijnlaan,20.0,2650.0,Edegem,Antwerpen,nabij onthaal,,,,"Prins Boudewijnlaan 20, Antwerpen, 2650, Belgique","20, Prins Boudewijnlaan, Kontich, Antwerpen, Vlaanderen, 2550, België / Belgique / Belgien","(51.139638399999995, 4.438857498569922, 0.0)",51.139638399999995,4.438857498569922,0.0
1941.0,,St. Bernardsesteenweg,588.0,2660.0,Hoboken,Antwerpen,nabij onthaal,,,,"St. Bernardsesteenweg 588, Antwerpen, 2660, Belgique","588-590, Sint-Bernardsesteenweg, Kiel, Hoboken, Antwerpen, Vlaanderen, 2660, België / Belgique / Belgien","(51.18368235, 4.372033605795542, 0.0)",51.18368235,4.372033605795542,0.0
1942.0,,Bist,44.0,2610.0,Wilrijk,Antwerpen,nabij onthaal,,,,"Bist 44, Antwerpen, 2610, Belgique","44, Bist, Kloosterheide, Lier, Mechelen, Antwerpen, Vlaanderen, 2500, België / Belgique / Belgien","(51.148218549999996, 4.602542345537557, 0.0)",51.148218549999996,4.602542345537557,0.0
1943.0,,Lange Lozanastraat,170.0,2018.0,Antwerpen,Antwerpen,nabij onthaal,,,,"Lange Lozanastraat 170, Antwerpen, 2018, Belgique","Lange Lozanastraat, Harmonie, Antwerpen, Vlaanderen, 2018, België / Belgique / Belgien","(51.1988408, 4.4074436, 0.0)",51.1988408,4.4074436,0.0
1945.0,,Turnhoutsebaan,132.0,2970.0,Schilde,Antwerpen,nabij onthaal,,,,"Turnhoutsebaan 132, Antwerpen, 2970, Belgique","132, Turnhoutsebaan, Schilde, Antwerpen, Vlaanderen, 2970, België / Belgique / Belgien","(51.2364711, 4.572828848453183, 0.0)",51.2364711,4.572828848453183,0.0
1947.0,,Grote Steenweg,464.0,2600.0,Berchem,Antwerpen,nabij onthaal,,,,"Grote Steenweg 464, Antwerpen, 2600, Belgique","Shell Express, 464, Grotesteenweg, De Veldekens, Nieuw Kwartier, Berchem, Antwerpen, Vlaanderen, 2600, België / Belgique / Belgien","(51.1853391, 4.4318639, 0.0)",51.1853391,4.4318639,0.0
1951.0,,Bredabaan,517.0,2930.0,Brasschaat,Antwerpen,nabij onthaal,,,,"Bredabaan 517, Antwerpen, 2930, Belgique","Carrefour Market, 517, Bredabaan, Brasschaat, Antwerpen, Vlaanderen, 2930, België / Belgique / Belgien","(51.29542735, 4.497900503969477, 0.0)",51.29542735,4.497900503969477,0.0
1957.0,,Lintsesteenweg,4.0,2500.0,Lier,Antwerpen,nabij onthaal,,,,"Lintsesteenweg 4, Antwerpen, 2500, Belgique","Shell Express, 4, Lintsesteenweg, Lier, Mechelen, Antwerpen, Vlaanderen, 2500, België / Belgique / Belgien","(51.1254239, 4.550376550000001, 0.0)",51.1254239,4.550376550000001,0.0
1959.0,,Veldstraat,12.0,2260.0,Westerlo,Antwerpen,nabij onthaal,,,,"Veldstraat 12, Antwerpen, 2260, Belgique","Carrefour market Westerlo, 10,12, Veldstraat, Westerlo, Turnhout, Antwerpen, Vlaanderen, 2260, België / Belgique / Belgien","(51.1136307, 4.866392153315419, 0.0)",51.1136307,4.866392153315419,0.0
1964.0,,Bredabaan,967.0,2900.0,Schoten,Antwerpen,nabij onthaal,,,,"Bredabaan 967, Antwerpen, 2900, Belgique","Lunch Garden, 967, Bredabaan, De List, Schoten, Antwerpen, Vlaanderen, 2900, België / Belgique / Belgien","(51.2587269, 4.465568, 0.0)",51.2587269,4.465568,0.0
1966.0,,Parklaan,,2300.0,Turnhout,Antwerpen,nabij onthaal,,,,"Parklaan , Antwerpen, 2300, Belgique","Parklaan, Blijkhoef, Turnhout, Antwerpen, Vlaanderen, 2300, België / Belgique / Belgien","(51.3124148, 4.944234, 0.0)",51.3124148,4.944234,0.0
1970.0,,De Robianostraat,155.0,2150.0,Borsbeek,Antwerpen,nabij onthaal,,,,"De Robianostraat 155, Antwerpen, 2150, Belgique","Shell Express, 155, de Robianostraat, Borsbeek, Antwerpen, Vlaanderen, 2150, België / Belgique / Belgien","(51.1944265, 4.475727, 0.0)",51.1944265,4.475727,0.0
1973.0,,Zwijndrechtsestraat,151.0,2070.0,Burcht,Antwerpen,nabij onthaal,,,,"Zwijndrechtsestraat 151, Antwerpen, 2070, Belgique","Brico, 137;139;149;151;153;155;157;159, Zwijndrechtsestraat, Burcht, Zwijndrecht, Antwerpen, Vlaanderen, 2070, België / Belgique / Belgien","(51.207085750000005, 4.340511017250838, 0.0)",51.207085750000005,4.340511017250838,0.0
1975.0,,Zemstbaan,208.0,2800.0,Zemst,Antwerpen,nabij onthaal,,,,"Zemstbaan 208, Antwerpen, 2800, Belgique","Zemstbaan, Mechelen, Antwerpen, Vlaanderen, 2800, België / Belgique / Belgien","(51.0020733, 4.4710634, 0.0)",51.0020733,4.4710634,0.0
2017.0,,Rode Kruislaan,20.0,2400.0,MOL,Antwerpen, inkomhal,,,,"Rode Kruislaan 20, Antwerpen, 2400, Belgique","Den Uyt, 20, Rode-Kruislaan, Mol, Turnhout, Antwerpen, Vlaanderen, 2400, België / Belgique / Belgien","(51.1802873, 5.114069, 0.0)",51.1802873,5.114069,0.0
2018.0,,Rode Kruislaan,20.0,2400.0,MOL,Antwerpen,buitenmuur kassa,,,,"Rode Kruislaan 20, Antwerpen, 2400, Belgique","Den Uyt, 20, Rode-Kruislaan, Mol, Turnhout, Antwerpen, Vlaanderen, 2400, België / Belgique / Belgien","(51.1802873, 5.114069, 0.0)",51.1802873,5.114069,0.0
2019.0,,Rode Kruislaan,20.0,2400.0,MOL,Antwerpen, inkomhal,,,,"Rode Kruislaan 20, Antwerpen, 2400, Belgique","Den Uyt, 20, Rode-Kruislaan, Mol, Turnhout, Antwerpen, Vlaanderen, 2400, België / Belgique / Belgien","(51.1802873, 5.114069, 0.0)",51.1802873,5.114069,0.0
2020.0,,Molenhoekstraat,2.0,2400.0,MOL,Antwerpen, inkomhal,,,,"Molenhoekstraat 2, Antwerpen, 2400, Belgique","2,3,4,6, Molenhoekstraat, Mol, Turnhout, Antwerpen, Vlaanderen, 2400, België / Belgique / Belgien","(51.18678755, 5.120988395596735, 0.0)",51.18678755,5.120988395596735,0.0
2030.0,,Dorpstraat,67.0,2811.0,Leest,Antwerpen," inkomhal, muur rechterkant",,,,"Dorpstraat 67, Antwerpen, 2811, Belgique","Sporthal Kouter, 67, Dorpstraat, Leest, Mechelen, Antwerpen, Vlaanderen, 2811, België / Belgique / Belgien","(51.0318818, 4.4104304, 0.0)",51.0318818,4.4104304,0.0
2031.0,,Leliestraat,32.0,2800.0,MECHELEN,Antwerpen,"inkomhal, links muur",,,,"Leliestraat 32, Antwerpen, 2800, Belgique","Zwembad Geerdegemvaart, 32, Leliestraat, Mechelen, Antwerpen, Vlaanderen, 2800, België / Belgique / Belgien","(51.0105942, 4.487408478982711, 0.0)",51.0105942,4.487408478982711,0.0
2032.0,,Winketkaai,32.0,2800.0,MECHELEN,Antwerpen,"inkomhal, links in kast tegen muur",,,,"Winketkaai 32, Antwerpen, 2800, Belgique","Winketkaai, Mechelen, Antwerpen, Vlaanderen, 2800, België / Belgique / Belgien","(51.0307503, 4.4707059, 0.0)",51.0307503,4.4707059,0.0
2033.0,,Boutersemstraat,57.0,2800.0,MECHELEN,Antwerpen,inkomhal links tegen muur,,,,"Boutersemstraat 57, Antwerpen, 2800, Belgique","Hendrik van Boutersemstraat, Lambrechtshoeken, Merksem, Antwerpen, Vlaanderen, 2170, België / Belgique / Belgien","(51.2504922, 4.4284183, 0.0)",51.2504922,4.4284183,0.0
2039.0,,Fort II straat,,2160.0,Wommelgem,Antwerpen,officierengebouw tgn pand 54,,,,"Fort II straat , Antwerpen, 2160, Belgique","Fort II straat, Laar, Wommelgem, Antwerpen, Vlaanderen, 2160, België / Belgique / Belgien","(51.2041577, 4.4888086, 0.0)",51.2041577,4.4888086,0.0
2041.0,,Lammerdries,55.0,2250.0,Olen,Antwerpen,gebouw 002 glvl,,,,"Lammerdries 55, Antwerpen, 2250, Belgique","55, Lammerdries-Oost, Geel-Olen-De Heze, Olen, Turnhout, Antwerpen, Vlaanderen, 2250, België / Belgique / Belgien","(51.1481589, 4.918342248581763, 0.0)",51.1481589,4.918342248581763,0.0
2042.0,,Antwerpseweg,15.0,2340.0,Beerse,Antwerpen,gebouw 100 glvl,,,,"Antwerpseweg 15, Antwerpen, 2340, Belgique","100, 15,17, Antwerpseweg, Beerse, Turnhout, Antwerpen, Vlaanderen, 2340, België / Belgique / Belgien","(51.30823345, 4.846823643906606, 0.0)",51.30823345,4.846823643906606,0.0
2043.0,,Janssen Pharmaceuticalaan,3.0,2440.0,Geel,Antwerpen,Gebouw 091 glvl,,,,"Janssen Pharmaceuticalaan 3, Antwerpen, 2440, Belgique","3, Janssen-Pharmaceuticalaan, Geel, Turnhout, Antwerpen, Vlaanderen, 2440, België / Belgique / Belgien","(51.12574635, 4.959083217042888, 0.0)",51.12574635,4.959083217042888,0.0
2046.0,,Turnhoutseweg,30.0,2340.0,Beerse,Antwerpen,gebouw 140 glvl,,,,"Turnhoutseweg 30, Antwerpen, 2340, Belgique","A560, 30, Turnhoutseweg, Beerse, Turnhout, Antwerpen, Vlaanderen, 2340, België / Belgique / Belgien","(51.3113239, 4.867664135810617, 0.0)",51.3113239,4.867664135810617,0.0
2047.0,,Turnhoutseweg,30.0,2340.0,Beerse,Antwerpen,Gebouw 260 glvl,,,,"Turnhoutseweg 30, Antwerpen, 2340, Belgique","A560, 30, Turnhoutseweg, Beerse, Turnhout, Antwerpen, Vlaanderen, 2340, België / Belgique / Belgien","(51.3113239, 4.867664135810617, 0.0)",51.3113239,4.867664135810617,0.0
2048.0,,Turnhoutseweg,30.0,2340.0,Beerse,Antwerpen,Gebouw 701 glvl,,,,"Turnhoutseweg 30, Antwerpen, 2340, Belgique","A560, 30, Turnhoutseweg, Beerse, Turnhout, Antwerpen, Vlaanderen, 2340, België / Belgique / Belgien","(51.3113239, 4.867664135810617, 0.0)",51.3113239,4.867664135810617,0.0
2051.0,,Loenhoutseweg,59.0,2320.0,Hoogstraten,Antwerpen,,,,,"Loenhoutseweg 59, Antwerpen, 2320, Belgique","59, Loenhoutseweg, Hoogstraten, Turnhout, Antwerpen, Vlaanderen, 2320, België / Belgique / Belgien","(51.393622949999994, 4.753374820044929, 0.0)",51.393622949999994,4.753374820044929,0.0
2069.0,,Kapelstraat,8.0,2540.0,Hove,Antwerpen, rechter kant van de ingang,,,,"Kapelstraat 8, Antwerpen, 2540, Belgique","8, Kapelstraat, Hove, Antwerpen, Vlaanderen, 2540, België / Belgique / Belgien","(51.1548016, 4.4701732, 0.0)",51.1548016,4.4701732,0.0
2070.0,,Rene Verbeecklaan,3.0,2540.0,HOVE,Antwerpen,glvl,,,,"Rene Verbeecklaan 3, Antwerpen, 2540, Belgique","René Verbeecklaan, Hove, Antwerpen, Vlaanderen, 2540, België / Belgique / Belgien","(51.1535817, 4.4797754, 0.0)",51.1535817,4.4797754,0.0
2071.0,,Paul van Ostayenlaan,2.0,2540.0,HOVE,Antwerpen,glvl,,,,"Paul van Ostayenlaan 2, Antwerpen, 2540, Belgique",,,,,
2074.0,,Nieuwmoer dorp,10.0,2920.0,Kalmthout,Antwerpen,buitenkast,,,,"Nieuwmoer dorp 10, Antwerpen, 2920, Belgique","GBS Maatjes, 10, Nieuwmoer-Dorp, Nieuwmoer, Kalmthout, Antwerpen, Vlaanderen, 2920, België / Belgique / Belgien","(51.4312957, 4.514068316399083, 0.0)",51.4312957,4.514068316399083,0.0
2075.0,,Brasschaatsteenweg,35.0,2920.0,KALMTHOUT,Antwerpen,buitenkast,,,,"Brasschaatsteenweg 35, Antwerpen, 2920, Belgique","35, Brasschaatsteenweg, Achterbroek, Kalmthout, Antwerpen, Vlaanderen, 2920, België / Belgique / Belgien","(51.3945314, 4.5024182, 0.0)",51.3945314,4.5024182,0.0
2076.0,,Willy Vandensteenplein ,,2920.0,KALMTHOUT,Antwerpen,buitenkast,,,,"Willy Vandensteenplein  , Antwerpen, 2920, Belgique",,,,,
2077.0,,Pastoor Weytslaan ,,2920.0,KALMTHOUT,Antwerpen,buitenkast met verwarming,,,,"Pastoor Weytslaan  , Antwerpen, 2920, Belgique","Pastoor Weytslaan, Kalmthout, Antwerpen, Vlaanderen, 2920, België / Belgique / Belgien","(51.391435, 4.473243, 0.0)",51.391435,4.473243,0.0
2087.0,,Campus Blairon,800.0,2300.0,Turnhout,Antwerpen,onthaal gang t.h.v. EHBO,,,,"Campus Blairon 800, Antwerpen, 2300, Belgique","Thomas More, 800, Campus Blairon, Turnhout, Antwerpen, Vlaanderen, 2300, België / Belgique / Belgien","(51.3175338, 4.929279023970402, 0.0)",51.3175338,4.929279023970402,0.0
2088.0,,Lepelstraat,2.0,2290.0,Vorselaar,Antwerpen,onthaal gang thv EHBO,,,,"Lepelstraat 2, Antwerpen, 2290, Belgique","2, Lepelstraat, Vorselaar, Turnhout, Antwerpen, Vlaanderen, 2290, België / Belgique / Belgien","(51.2008881, 4.7727074, 0.0)",51.2008881,4.7727074,0.0
2089.0,,Kleinhoefstraat,4.0,2440.0,Geel,Antwerpen,onthaal glvl thv EHBO lokaal,,,,"Kleinhoefstraat 4, Antwerpen, 2440, Belgique","Thomas More, 4, Kleinhoefstraat, Elsum, Geel, Turnhout, Antwerpen, Vlaanderen, 2440, België / Belgique / Belgien","(51.160876200000004, 4.961817590483868, 0.0)",51.160876200000004,4.961817590483868,0.0
2106.0,,Markt,12.0,2440.0,Geel,Antwerpen,inkomhal,,,,"Markt 12, Antwerpen, 2440, Belgique","donorcentrum Geel, 12, Markt, Elsum, Geel, Turnhout, Antwerpen, Vlaanderen, 2440, België / Belgique / Belgien","(51.1622299, 4.989674, 0.0)",51.1622299,4.989674,0.0
2109.0,,Blarenberglaan,,2800.0,Mechelen,Antwerpen,"glvl, keuken",,,,"Blarenberglaan , Antwerpen, 2800, Belgique","Blarenberglaan, Mechelen, Antwerpen, Vlaanderen, 2800, België / Belgique / Belgien","(51.0524749, 4.4484273, 0.0)",51.0524749,4.4484273,0.0
2123.0,,Veldstraat,83.0,2060.0,Antwerpen,Antwerpen,1e verd. EHBO lokaal,,,,"Veldstraat 83, Antwerpen, 2060, Belgique","Stedelijk Zwembad Veldstraat, 83, Veldstraat, Seefhoek-Stuivenberg, Antwerpen-Noord, Antwerpen, Vlaanderen, 2060, België / Belgique / Belgien","(51.22681385, 4.432758776191265, 0.0)",51.22681385,4.432758776191265,0.0
2138.0,,Eggestraat,1.0,2800.0,Mechelen,Antwerpen,portiersloge Pringles,,,,"Eggestraat 1, Antwerpen, 2800, Belgique","Kellogg's, 1, Eggestraat, Mechelen, Antwerpen, Vlaanderen, 2800, België / Belgique / Belgien","(51.0154768, 4.4642487, 0.0)",51.0154768,4.4642487,0.0
2150.0,,Egide Walschaertsstraat,,2800.0,Mechelen,Antwerpen,onthaal,,,,"Egide Walschaertsstraat , Antwerpen, 2800, Belgique","Egide Walschaertsstraat, Mechelen, Antwerpen, Vlaanderen, 2800, België / Belgique / Belgien","(51.0028906, 4.460656, 0.0)",51.0028906,4.460656,0.0
2152.0,,Hoveniersstraat,,2018.0,Antwerpen,Antwerpen,balie security,,,,"Hoveniersstraat , Antwerpen, 2018, Belgique","Hoveniersstraat, Diamant, Centraal Station, Antwerpen-Noord, Antwerpen, Vlaanderen, 2018, België / Belgique / Belgien","(51.2159461, 4.4186134, 0.0)",51.2159461,4.4186134,0.0
2153.0,,Industrielaan,13.0,2250.0,Olen,Antwerpen,bureel productie Lintor,,,,"Industrielaan 13, Antwerpen, 2250, Belgique","13;15, Industrielaan, Olen-Hoogbuul, Olen, Turnhout, Antwerpen, Vlaanderen, 2250, België / Belgique / Belgien","(51.150956449999995, 4.875986408980445, 0.0)",51.150956449999995,4.875986408980445,0.0
2179.0,,Bedrijvenlaan ,9.0,2800.0,Mechelen,Antwerpen,"glvl, lobby rechtermuur",,,,"Bedrijvenlaan  9, Antwerpen, 2800, Belgique","9;11;13;15, Bedrijvenlaan, Mechelen, Antwerpen, Vlaanderen, 2800, België / Belgique / Belgien","(51.002773399999995, 4.46581032834775, 0.0)",51.002773399999995,4.46581032834775,0.0
2185.0,,Elshoutbaan,17.0,2930.0,Brasschaat,Antwerpen,balie zwembad glvl,,,,"Elshoutbaan 17, Antwerpen, 2930, Belgique","Sportoase Elshout, 17, Elshoutbaan, Brasschaat, Antwerpen, Vlaanderen, 2930, België / Belgique / Belgien","(51.28505135, 4.500158839141914, 0.0)",51.28505135,4.500158839141914,0.0
2192.0,,Rodderveldlaan,4.0,2600.0,Berchem,Antwerpen,"2e verdiep, kantoorgebouw",,,,"Rodderveldlaan 4, Antwerpen, 2600, Belgique",,,,,
2209.0,,Stokerijstraat,79.0,2110.0,Wijnegem,Antwerpen,"receptie, glvl,buitenmuur",,,,"Stokerijstraat 79, Antwerpen, 2110, Belgique","77-79, Stokerijstraat, Wijnegem Zone 3 - Stokerij, Schilde, Antwerpen, Vlaanderen, 2970, België / Belgique / Belgien","(51.2215497, 4.549045001760556, 0.0)",51.2215497,4.549045001760556,0.0
2227.0,,Gemeenteplein ,1.0,2580.0,Putte,Antwerpen,voor voetbalwedstrijden,,,,"Gemeenteplein  1, Antwerpen, 2580, Belgique","1, Gemeenteplein, Putte, Mechelen, Antwerpen, Vlaanderen, 2580, België / Belgique / Belgien","(51.05699195, 4.627953696774755, 0.0)",51.05699195,4.627953696774755,0.0
2252.0,,Prins Boudewijnlaan,,2550.0,Kontich,Antwerpen,receptie,,,,"Prins Boudewijnlaan , Antwerpen, 2550, Belgique","Prins Boudewijnlaan, Kontich, Antwerpen, Vlaanderen, 2550, België / Belgique / Belgien","(51.1390606, 4.4383285, 0.0)",51.1390606,4.4383285,0.0
2257.0,,Laageind,91.0,2940.0,Stabroek,Antwerpen,glvl t.h.v. EHBO lokaal,,,,"Laageind 91, Antwerpen, 2940, Belgique","Aertssen nv, 91, Laageind, Stabroek, Antwerpen, Vlaanderen, 2940, België / Belgique / Belgien","(51.325714149999996, 4.354339715770693, 0.0)",51.325714149999996,4.354339715770693,0.0
2258.0,,Mechelsesteenweg ,180.0,2018.0,Antwerpen,Antwerpen,"glvl, links onthaal",,,,"Mechelsesteenweg  180, Antwerpen, 2018, Belgique","180, Mechelsesteenweg, Oude God, Mortsel, Antwerpen, Vlaanderen, 2640, België / Belgique / Belgien","(51.165170950000004, 4.454017139236736, 0.0)",51.165170950000004,4.454017139236736,0.0
2266.0,,Draakplaats,,2140.0,Borgerhout,Antwerpen,,,,,"Draakplaats , Antwerpen, 2140, Belgique","Draakplaats, Zurenborg, Antwerpen, Vlaanderen, 2018, België / Belgique / Belgien","(51.2060622, 4.4327155, 0.0)",51.2060622,4.4327155,0.0
2267.0,,Draakplaats,,2140.0,Borgerhout,Antwerpen,,,,,"Draakplaats , Antwerpen, 2140, Belgique","Draakplaats, Zurenborg, Antwerpen, Vlaanderen, 2018, België / Belgique / Belgien","(51.2060622, 4.4327155, 0.0)",51.2060622,4.4327155,0.0
2271.0,,Kronenburgstraat,43.0,2000.0,Antwerpen,Antwerpen,glvl nst SOA/HIV cons.,,,,"Kronenburgstraat 43, Antwerpen, 2000, Belgique","Kronenburgstraat, Sint-Andries, Sint-Anna, Antwerpen, Vlaanderen, 2000, België / Belgique / Belgien","(51.2117042, 4.4006711, 0.0)",51.2117042,4.4006711,0.0
2323.0,,Lange Kievitstraat,145.0,2018.0,Antwerpen,Antwerpen,"glvl, hoofdingang",,,,"Lange Kievitstraat 145, Antwerpen, 2018, Belgique","Lange Kievitstraat, Kievitwijk, Centraal Station, Antwerpen, Vlaanderen, 2018, België / Belgique / Belgien","(51.2134703, 4.4242165, 0.0)",51.2134703,4.4242165,0.0
2324.0,,Luithagen - Haven,6.0,2030.0,Antwerpen,Antwerpen,glvl aan hoofdingang,,,,"Luithagen - Haven 6, Antwerpen, 2030, Belgique","Antwerp Supercharger, 6, Luithagen-Haven, Luithagen, Antwerpen, Vlaanderen, 2030, België / Belgique / Belgien","(51.2681134, 4.4029194, 0.0)",51.2681134,4.4029194,0.0
2346.0,,Luithagen-Haven,6.0,2030.0,Antwerpen,Antwerpen,"aglvl, hoofdingang",,,,"Luithagen-Haven 6, Antwerpen, 2030, Belgique","Antwerp Supercharger, 6, Luithagen-Haven, Luithagen, Antwerpen, Vlaanderen, 2030, België / Belgique / Belgien","(51.2681134, 4.4029194, 0.0)",51.2681134,4.4029194,0.0
2347.0,,Meistraat,39.0,2000.0,Antwerpen,Antwerpen,"glvl, hoofdingang",,,,"Meistraat 39, Antwerpen, 2000, Belgique","Ibis, 39, Meistraat, Theaterbuurt, Antwerpen-Noord, Antwerpen, Vlaanderen, 2000, België / Belgique / Belgien","(51.2147551, 4.4109821, 0.0)",51.2147551,4.4109821,0.0
2348.0,,Van Beethovenstraat,1.0,2800.0,Mechelen,Antwerpen,"glvl, hoofdingang",,,,"Van Beethovenstraat 1, Antwerpen, 2800, Belgique","Hotel Novotel, 1, van Beethovenstraat, Nekkerspoel, Mechelen, Antwerpen, Vlaanderen, 2800, België / Belgique / Belgien","(51.0257305, 4.4764408, 0.0)",51.0257305,4.4764408,0.0
2354.0,,Stationsstraat,,2800.0,Mechelen,Antwerpen,1e verd. ingang kantoor,,,,"Stationsstraat , Antwerpen, 2800, Belgique","Stationsstraat, Nekkerspoel, Mechelen, Antwerpen, Vlaanderen, 2800, België / Belgique / Belgien","(51.0192879, 4.484197, 0.0)",51.0192879,4.484197,0.0
2369.0,,Bergakker,,2350.0,Vosselaar,Antwerpen,spelerslokaal aan kleedkamer,,,,"Bergakker , Antwerpen, 2350, Belgique","Bergakker, Vosselaar, Turnhout, Antwerpen, Vlaanderen, 2350, België / Belgique / Belgien","(51.3089263, 4.8868856, 0.0)",51.3089263,4.8868856,0.0
2385.0,,Lange Kievitstraat 111-113glvl achter onthaal,,2018.0,Antwerpen,Antwerpen,,,,,"Lange Kievitstraat 111-113glvl achter onthaal , Antwerpen, 2018, Belgique",,,,,
2394.0,,"Prins Boudewijnlaan 30begane grond, receptie",,2250.0,Kontich,Antwerpen,,,,,"Prins Boudewijnlaan 30begane grond, receptie , Antwerpen, 2250, Belgique",,,,,
2402.0,,Turnhoutsebaan ,,2110.0,Wijnegem,Antwerpen,infobalie/glvl,,,,"Turnhoutsebaan  , Antwerpen, 2110, Belgique","Turnhoutsebaan, Wijnegem, Antwerpen, Vlaanderen, 2110, België / Belgique / Belgien","(51.2287092, 4.5355336, 0.0)",51.2287092,4.5355336,0.0
2403.0,,Turnhoutsebaan,,2110.0,Wijnegem,Antwerpen,EHBO lokaal 1e verd.,,,,"Turnhoutsebaan , Antwerpen, 2110, Belgique","Turnhoutsebaan, Wijnegem, Antwerpen, Vlaanderen, 2110, België / Belgique / Belgien","(51.2287092, 4.5355336, 0.0)",51.2287092,4.5355336,0.0
2405.0,,Antwerpsesteenweg,39.0,2950.0,Kapellen,Antwerpen,1e verd. meldkamer security,,,,"Antwerpsesteenweg 39, Antwerpen, 2950, Belgique","Carrefour Market, 39,37, Antwerpsesteenweg, Kapellen, Antwerpen, Vlaanderen, 2950, België / Belgique / Belgien","(51.3127564, 4.4305357, 0.0)",51.3127564,4.4305357,0.0
2438.0,,Brugstraat,83.0,2960.0,Brecht,Antwerpen,"glvl, adm. Gebouw",,,,"Brugstraat 83, Antwerpen, 2960, Belgique","83, Brugstraat, Sint-Job-in-'t-Goor, Brecht, Antwerpen, Vlaanderen, 2960, België / Belgique / Belgien","(51.296382699999995, 4.573832587866935, 0.0)",51.296382699999995,4.573832587866935,0.0
2439.0,,Abdijlaan,33.0,2960.0,Brecht,Antwerpen,"adm. Gebouw, glvl",,,,"Abdijlaan 33, Antwerpen, 2960, Belgique","Luyckx nv, 33, Abdijlaan, Brecht, Antwerpen, Vlaanderen, 2960, België / Belgique / Belgien","(51.303767449999995, 4.629317601360775, 0.0)",51.303767449999995,4.629317601360775,0.0
2440.0,,Industrieweg,33.0,2320.0,Hoogstraten,Antwerpen,"adm gebouw, gelijkvloers",,,,"Industrieweg 33, Antwerpen, 2320, Belgique","Verkooien (René), 33, Industrieweg, De Kluis, Hoogstraten, Turnhout, Antwerpen, Vlaanderen, 2320, België / Belgique / Belgien","(51.3896383, 4.73113155183686, 0.0)",51.3896383,4.73113155183686,0.0
2516.0,,Graanmarkt,,2000.0,Antwerpen,Antwerpen,achterkant gebouw,,,,"Graanmarkt , Antwerpen, 2000, Belgique","Graanmarkt, Theaterbuurt, Sint-Anna, Antwerpen, Vlaanderen, 2000, België / Belgique / Belgien","(51.2159306, 4.4079924, 0.0)",51.2159306,4.4079924,0.0
2548.0,,Platte Beekstraat,1.0,2800.0,Mechelen,Antwerpen,gang kleedkamers en WC,,,,"Platte Beekstraat 1, Antwerpen, 2800, Belgique","Platte Beekstraat, Nekkerspoel, Mechelen, Antwerpen, Vlaanderen, 2800, België / Belgique / Belgien","(51.0302906, 4.5045717, 0.0)",51.0302906,4.5045717,0.0
2549.0,,Donkerlei,72.0,2800.0,MECHELEN,Antwerpen,inkomhal,,,,"Donkerlei 72, Antwerpen, 2800, Belgique","72, Donkerlei, Katanga, Nekkerspoel, Mechelen, Antwerpen, Vlaanderen, 2800, België / Belgique / Belgien","(51.0371173, 4.4788627016034415, 0.0)",51.0371173,4.4788627016034415,0.0
2550.0,,Eksterstraat,100.0,2800.0,MECHELEN,Antwerpen,inkomhal naast WC,,,,"Eksterstraat 100, Antwerpen, 2800, Belgique","Sporthal De Plaon, 100, Eksterstraat, Katanga, Nekkerspoel, Mechelen, Antwerpen, Vlaanderen, 2800, België / Belgique / Belgien","(51.041365150000004, 4.475661151618063, 0.0)",51.041365150000004,4.475661151618063,0.0
2551.0,,Pastorijstraat,50.0,2800.0,MECHELEN,Antwerpen,inkomhal naast trap,,,,"Pastorijstraat 50, Antwerpen, 2800, Belgique","Sporthal Arena, 50, Pastorijstraat, Walem, Mechelen, Antwerpen, Vlaanderen, 2800, België / Belgique / Belgien","(51.067327, 4.4598726, 0.0)",51.067327,4.4598726,0.0
2552.0,,J.F. VAN GEELSTRAAT,1.0,2812.0,Muizen,Antwerpen,inkomhal naast trap,,,,"J.F. VAN GEELSTRAAT 1, Antwerpen, 2812, Belgique",,,,,
2553.0,,Paardenstraatje,8.0,2800.0,MECHELEN,Antwerpen,inkomhal links naast infobord,,,,"Paardenstraatje 8, Antwerpen, 2800, Belgique","8, Paardenstraatje, Nekkerspoel, Mechelen, Antwerpen, Vlaanderen, 2800, België / Belgique / Belgien","(51.03017695, 4.4842008367269495, 0.0)",51.03017695,4.4842008367269495,0.0
2599.0,,Gemeenteplein,1.0,2650.0,Edegem,Antwerpen,ingang,,,,"Gemeenteplein 1, Antwerpen, 2650, Belgique","Gemeentehuis Edegem, 1, Gemeenteplein, Edegem, Antwerpen, Vlaanderen, 2650, België / Belgique / Belgien","(51.1544511, 4.445504819072531, 0.0)",51.1544511,4.445504819072531,0.0
2632.0,,Eikenstraat ,9.0,2000.0,Antwerpen,Antwerpen,dispatching -1,,,,"Eikenstraat  9, Antwerpen, 2000, Belgique","9, Eikenstraat, Vredewijk, Kontich, Hove, Antwerpen, Vlaanderen, 2540, België / Belgique / Belgien","(51.14299245, 4.462047019821427, 0.0)",51.14299245,4.462047019821427,0.0
2643.0,,Schommelei ,5.0,2850.0,Boom,Antwerpen,medisch kabinet,,,,"Schommelei  5, Antwerpen, 2850, Belgique","Schommelei, Boom, Antwerpen, Vlaanderen, 2850, België / Belgique / Belgien","(51.0875787, 4.3740062, 0.0)",51.0875787,4.3740062,0.0
2648.0,,Nijverheidsstraat,30.0,2260.0,Oevel,Antwerpen,"glvl, EHBO lok Estane afd",,,,"Nijverheidsstraat 30, Antwerpen, 2260, Belgique","30, Nijverheidsstraat, Oevel, Westerlo, Turnhout, Antwerpen, Vlaanderen, 2260, België / Belgique / Belgien","(51.14355555, 4.9040629978282535, 0.0)",51.14355555,4.9040629978282535,0.0
2649.0,,Nijverheidsstraat,30.0,2260.0,OEVEL,Antwerpen,"glvl, EHBO lok, TempRite",,,,"Nijverheidsstraat 30, Antwerpen, 2260, Belgique","30, Nijverheidsstraat, Oevel, Westerlo, Turnhout, Antwerpen, Vlaanderen, 2260, België / Belgique / Belgien","(51.14355555, 4.9040629978282535, 0.0)",51.14355555,4.9040629978282535,0.0
2654.0,,Rijksweg ,1.0,2870.0,Puurs,Antwerpen,"glvl, balie receptie",,,,"Rijksweg  1, Antwerpen, 2870, Belgique","1, Rijksweg, Kalfort, Ruisbroek, Puurs-Sint-Amands, Mechelen, Antwerpen, Vlaanderen, 2870, België / Belgique / Belgien","(51.07143895, 4.308499365872565, 0.0)",51.07143895,4.308499365872565,0.0
2655.0,,Rijnkaai ,37.0,2000.0,Antwerpen,Antwerpen,"7e verd, links aan receptie",,,,"Rijnkaai  37, Antwerpen, 2000, Belgique","Friendship Building, 37, Rijnkaai, Nieuwstad-Cadix, Eilandje, Sint-Anna, Antwerpen, Vlaanderen, 2000, België / Belgique / Belgien","(51.23062075, 4.403312757021411, 0.0)",51.23062075,4.403312757021411,0.0
2656.0,,Braderijstraat,11.0,2000.0,Antwerpen,Antwerpen,"glvl, receptiebalie",,,,"Braderijstraat 11, Antwerpen, 2000, Belgique","11, Braderijstraat, Historisch Centrum, Sint-Anna, Antwerpen, Vlaanderen, 2000, België / Belgique / Belgien","(51.2218288, 4.399773201517838, 0.0)",51.2218288,4.399773201517838,0.0
2699.0,,Diepestraat,3.0,2580.0,Putte,Antwerpen,buiten aan gevel politiebureel,,,,"Diepestraat 3, Antwerpen, 2580, Belgique","3, Diepestraat, Beerzel, Putte, Mechelen, Antwerpen, Vlaanderen, 2580, België / Belgique / Belgien","(51.058441200000004, 4.667819251399258, 0.0)",51.058441200000004,4.667819251399258,0.0
2724.0,,Hopland,24.0,2000.0,Antwerpen,Antwerpen,dispatching uitrit voertuigen,,,,"Hopland 24, Antwerpen, 2000, Belgique","Horta, 24, Hopland, Theaterbuurt, Antwerpen-Noord, Antwerpen, Vlaanderen, 2000, België / Belgique / Belgien","(51.216477, 4.411763, 0.0)",51.216477,4.411763,0.0
2725.0,,Rooseveltplaats,12.0,2060.0,Antwerpen,Antwerpen,dispatching uitrit voertuigen,,,,"Rooseveltplaats 12, Antwerpen, 2060, Belgique","President Building, 10-12,18, Franklin Rooseveltplaats, Atheneum, Amandus-Atheneum, Antwerpen-Noord, Antwerpen, Vlaanderen, 2060, België / Belgique / Belgien","(51.218998400000004, 4.417733244247417, 0.0)",51.218998400000004,4.417733244247417,0.0
2726.0,,Koningin Elisabethlei,38.0,2300.0,Turnhout,Antwerpen,"glvl, thv dokterskabinet",,,,"Koningin Elisabethlei 38, Antwerpen, 2300, Belgique","38, Koningin Elisabethlei, Turnhout, Antwerpen, Vlaanderen, 2300, België / Belgique / Belgien","(51.3304739, 4.94928404100258, 0.0)",51.3304739,4.94928404100258,0.0
2728.0,,Lamorinièrestraat ,231.0,2018.0,Antwerpen,Antwerpen,"glvl, inkomhal",,,,"Lamorinièrestraat  231, Antwerpen, 2018, Belgique","Klooster van de Soeurs de l'Espérance, 231, Lamorinièrestraat, Groen Kwartier, Haringrode, Antwerpen, Vlaanderen, 2018, België / Belgique / Belgien","(51.200992049999996, 4.417505978156731, 0.0)",51.200992049999996,4.417505978156731,0.0
2737.0,,Electriciteitsstraat ,,2800.0,Mechelen,Antwerpen," glvl, inkomhal",,,,"Electriciteitsstraat  , Antwerpen, 2800, Belgique",,,,,
2738.0,,Elektriciteitstraat  ,,2800.0,Mechelen,Antwerpen,"glvl, Inkomhal",,,,"Elektriciteitstraat   , Antwerpen, 2800, Belgique","Elektriciteitstraat, Marokken, Mechelen, Antwerpen, Vlaanderen, 2800, België / Belgique / Belgien","(51.0368511, 4.4706046, 0.0)",51.0368511,4.4706046,0.0
2740.0,,Merksemsesteenweg,233.0,2600.0,Berchem,Antwerpen,"glvl, inkomhal thv secr",,,,"Merksemsesteenweg 233, Antwerpen, 2600, Belgique","233,235, Merksemsesteenweg, Kronenburg, Deurne-Noord, Deurne, Antwerpen, Vlaanderen, 2100, België / Belgique / Belgien","(51.235973650000005, 4.453793961781537, 0.0)",51.235973650000005,4.453793961781537,0.0
2747.0,,Antwerpsesteenweg ,145.0,2800.0,Mechelen,Antwerpen,onthaal,,,,"Antwerpsesteenweg  145, Antwerpen, 2800, Belgique","145, Antwerpsesteenweg, Otterbeek, Mechelen, Antwerpen, Vlaanderen, 2800, België / Belgique / Belgien","(51.0444815, 4.468182617334733, 0.0)",51.0444815,4.468182617334733,0.0
2755.0,,Desquinlei ,244.0,2018.0,Antwerpen,Antwerpen,"glvl, overdekte Aula",,,,"Desquinlei  244, Antwerpen, 2018, Belgique",,,,,
2781.0,,Bredabaan,31.0,2930.0,Brasschaat,Antwerpen,regielokaal,,,,"Bredabaan 31, Antwerpen, 2930, Belgique","31, Bredabaan, Vriesdonk, Brasschaat, Antwerpen, Vlaanderen, 2930, België / Belgique / Belgien","(51.2715631, 4.4702837, 0.0)",51.2715631,4.4702837,0.0
2782.0,,Beauvoislaan ,95.0,2920.0,Kalmthout,Antwerpen,"1e verdiep, gang burelen",,,,"Beauvoislaan  95, Antwerpen, 2920, Belgique","95, Beauvoislaan, Heide, Kalmthout, Antwerpen, Vlaanderen, 2920, België / Belgique / Belgien","(51.3704957, 4.48410245, 0.0)",51.3704957,4.48410245,0.0
2798.0,,Armenstraatje,,2040.0,Antwerpen,Antwerpen,,,,,"Armenstraatje , Antwerpen, 2040, Belgique","Armenstraatje, Zandvliet, Berendrecht-Zandvliet-Lillo, Antwerpen, Vlaanderen, 2040, België / Belgique / Belgien","(51.3578659, 4.3171674, 0.0)",51.3578659,4.3171674,0.0
2809.0,,Van Beethovenstraat,8.0,2800.0,Mechelen,Antwerpen,glvl straatkant,,,,"Van Beethovenstraat 8, Antwerpen, 2800, Belgique","Lam'eau, 8, van Beethovenstraat, Nekkerspoel, Mechelen, Antwerpen, Vlaanderen, 2800, België / Belgique / Belgien","(51.0260164, 4.4763617, 0.0)",51.0260164,4.4763617,0.0
2810.0,,Befferstraat,25.0,2800.0,MECHELEN,Antwerpen, glvl straatkant,,,,"Befferstraat 25, Antwerpen, 2800, Belgique","De Zeeridder, 25, Befferstraat, Nekkerspoel, Mechelen, Antwerpen, Vlaanderen, 2800, België / Belgique / Belgien","(51.0284435, 4.4822839, 0.0)",51.0284435,4.4822839,0.0
2814.0,,Heuvel ,2.0,2920.0,Kalmthout,Antwerpen,onthaalgebouw glvl achter balie,,,,"Heuvel  2, Antwerpen, 2920, Belgique","Vangeertenhof, 2, Heuvel, Kalmthout, Antwerpen, Vlaanderen, 2920, België / Belgique / Belgien","(51.3913981, 4.4662767250000055, 0.0)",51.3913981,4.4662767250000055,0.0
2838.0,,Torenlei,2.0,2950.0,Kapellen,Antwerpen,aan de ingang,,,,"Torenlei 2, Antwerpen, 2950, Belgique","2,2A, Torenlei, Kapellenbos, Kapellen, Antwerpen, Vlaanderen, 2950, België / Belgique / Belgien","(51.347202499999995, 4.460437481509704, 0.0)",51.347202499999995,4.460437481509704,0.0
2840.0,,Industriepark,30.0,2220.0,Heist-Op-Den-Berg,Antwerpen,receptie,,,,"Industriepark 30, Antwerpen, 2220, Belgique","30, Industriepark, Hulshout, Turnhout, Antwerpen, Vlaanderen, 2235, België / Belgique / Belgien","(51.08416925, 4.80944589841674, 0.0)",51.08416925,4.80944589841674,0.0
2841.0,,Industriepark,30.0,2220.0,Heist-Op-Den-Berg,Antwerpen,gang labo,,,,"Industriepark 30, Antwerpen, 2220, Belgique","30, Industriepark, Hulshout, Turnhout, Antwerpen, Vlaanderen, 2235, België / Belgique / Belgien","(51.08416925, 4.80944589841674, 0.0)",51.08416925,4.80944589841674,0.0
2842.0,,Industriepark,30.0,2220.0,Heist-Op-Den-Berg,Antwerpen,kleedkamers zuidgevel,,,,"Industriepark 30, Antwerpen, 2220, Belgique","30, Industriepark, Hulshout, Turnhout, Antwerpen, Vlaanderen, 2235, België / Belgique / Belgien","(51.08416925, 4.80944589841674, 0.0)",51.08416925,4.80944589841674,0.0
2843.0,,Industriepark,30.0,2220.0,Heist-Op-Den-Berg,Antwerpen,EHBO-lokaal,,,,"Industriepark 30, Antwerpen, 2220, Belgique","30, Industriepark, Hulshout, Turnhout, Antwerpen, Vlaanderen, 2235, België / Belgique / Belgien","(51.08416925, 4.80944589841674, 0.0)",51.08416925,4.80944589841674,0.0
2844.0,,Industriepark,30.0,2220.0,Heist-Op-Den-Berg,Antwerpen,OSD-compounding,,,,"Industriepark 30, Antwerpen, 2220, Belgique","30, Industriepark, Hulshout, Turnhout, Antwerpen, Vlaanderen, 2235, België / Belgique / Belgien","(51.08416925, 4.80944589841674, 0.0)",51.08416925,4.80944589841674,0.0
2845.0,,Industriepark,30.0,2220.0,Heist-Op-Den-Berg,Antwerpen,TS-barak,,,,"Industriepark 30, Antwerpen, 2220, Belgique","30, Industriepark, Hulshout, Turnhout, Antwerpen, Vlaanderen, 2235, België / Belgique / Belgien","(51.08416925, 4.80944589841674, 0.0)",51.08416925,4.80944589841674,0.0
2846.0,,Industriepark,30.0,2220.0,Heist-Op-Den-Berg,Antwerpen,omkleedse OSD prim-secund,,,,"Industriepark 30, Antwerpen, 2220, Belgique","30, Industriepark, Hulshout, Turnhout, Antwerpen, Vlaanderen, 2235, België / Belgique / Belgien","(51.08416925, 4.80944589841674, 0.0)",51.08416925,4.80944589841674,0.0
2847.0,,Industriepark,30.0,2220.0,Heist-Op-Den-Berg,Antwerpen,trappenhal HVMO,,,,"Industriepark 30, Antwerpen, 2220, Belgique","30, Industriepark, Hulshout, Turnhout, Antwerpen, Vlaanderen, 2235, België / Belgique / Belgien","(51.08416925, 4.80944589841674, 0.0)",51.08416925,4.80944589841674,0.0
2848.0,,Industriepark,30.0,2220.0,Heist-Op-Den-Berg,Antwerpen,cafetaria OSD,,,,"Industriepark 30, Antwerpen, 2220, Belgique","30, Industriepark, Hulshout, Turnhout, Antwerpen, Vlaanderen, 2235, België / Belgique / Belgien","(51.08416925, 4.80944589841674, 0.0)",51.08416925,4.80944589841674,0.0
2850.0,,Fabriekstraat,17.0,2260.0,Westerlo,Antwerpen,EHBO-lokaal,,,,"Fabriekstraat 17, Antwerpen, 2260, Belgique","17, Fabriekstraat, Wiekevorst, Heist-op-den-Berg, Mechelen, Antwerpen, Vlaanderen, 2222, België / Belgique / Belgien","(51.08834625, 4.818714236614612, 0.0)",51.08834625,4.818714236614612,0.0
2856.0,,Handschoenmarkt ,,2000.0,Antwerpen,Antwerpen,zw kathedraal spreekkamer,,,,"Handschoenmarkt  , Antwerpen, 2000, Belgique","Handschoenmarkt, Historisch Centrum, Sint-Anna, Antwerpen, Vlaanderen, 2000, België / Belgique / Belgien","(51.2206407, 4.4004574, 0.0)",51.2206407,4.4004574,0.0
2866.0,,Verlorenkost,22.0,2260.0,Westerlo,Antwerpen,hoofdingang woonzorgcentrum,,,,"Verlorenkost 22, Antwerpen, 2260, Belgique","22,22A,22B,22C,22D,22F,22G,22H,22I,22J, Verlorenkost, Westerlo, Turnhout, Antwerpen, Vlaanderen, 2260, België / Belgique / Belgien","(51.0899228, 4.922048506404019, 0.0)",51.0899228,4.922048506404019,0.0
2868.0,,Breevendreef ,,2880.0,Bornem,Antwerpen,"cafetaria, uitg sportveld",,,,"Breevendreef  , Antwerpen, 2880, Belgique","Breevendreef, Bornem, Mechelen, Antwerpen, Vlaanderen, 2880, België / Belgique / Belgien","(51.0926416, 4.242993, 0.0)",51.0926416,4.242993,0.0
2883.0,,Mijlstraat,91.0,2570.0,Duffel,Antwerpen,fietsenluifel voorgevel school,,,,"Mijlstraat 91, Antwerpen, 2570, Belgique","91, Mijlstraat, Duffel, Mechelen, Antwerpen, Vlaanderen, 2570, België / Belgique / Belgien","(51.0953466, 4.554862706926864, 0.0)",51.0953466,4.554862706926864,0.0
2885.0,,Rijksweg ,12.0,2870.0,Puurs,Antwerpen,"glvl, hoofdgang med. Dienst",,,,"Rijksweg  12, Antwerpen, 2870, Belgique","12, Rijksweg, Kalfort, Puurs, Puurs-Sint-Amands, Mechelen, Antwerpen, Vlaanderen, 2870, België / Belgique / Belgien","(51.0660747, 4.310309251502895, 0.0)",51.0660747,4.310309251502895,0.0
2886.0,,Rijksweg ,20.0,2870.0,Puurs,Antwerpen,Cafetaria GSP 1ste verdieping (ipv interventie lokaal),y,,,"Rijksweg  20, Antwerpen, 2870, Belgique","Rijksweg, Puurs, Puurs-Sint-Amands, Mechelen, Antwerpen, Vlaanderen, 2870, België / Belgique / Belgien","(51.0624154, 4.3220926, 0.0)",51.0624154,4.3220926,0.0
2898.0,,Smisstraat,48.0,2800.0,Mechelen,Antwerpen,EHBOlokaal links gang glvl,,,,"Smisstraat 48, Antwerpen, 2800, Belgique","Alphacloud Datacenter, 48, Smisstraat, Nekkerspoel, Mechelen, Antwerpen, Vlaanderen, 2800, België / Belgique / Belgien","(51.01799805, 4.497022148829693, 0.0)",51.01799805,4.497022148829693,0.0
2905.0,,Steenovenstraat ,2.0,2390.0,Malle,Antwerpen,"Aglvl,omgeving toiletten bureel",,,,"Steenovenstraat  2, Antwerpen, 2390, Belgique","2,2A,2B,2C,2D, Steenovenstraat, Oostmalle, Malle, Antwerpen, Vlaanderen, 2390, België / Belgique / Belgien","(51.304195050000004, 4.70905961282809, 0.0)",51.304195050000004,4.70905961282809,0.0
2906.0,,Risschotlei ,12.0,2980.0,Zoersel,Antwerpen,glvl aan receptie,,,,"Risschotlei  12, Antwerpen, 2980, Belgique","12, Risschotlei, Zoersel, Antwerpen, Vlaanderen, 2980, België / Belgique / Belgien","(51.272190699999996, 4.651723470689676, 0.0)",51.272190699999996,4.651723470689676,0.0
2930.0,,Van Vaerenberghstraat,31.0,2600.0,Berchem,Antwerpen,inkomhal-glvl,,,,"Van Vaerenberghstraat 31, Antwerpen, 2600, Belgique","31, Van Vaerenberghstraat, Oud-Berchem, Berchem, Antwerpen, Vlaanderen, 2600, België / Belgique / Belgien","(51.1976484, 4.429150148124436, 0.0)",51.1976484,4.429150148124436,0.0
2934.0,,Doolweg ,,2150.0,BorsbeekAntw.),Antwerpen,zaal Kiné,,,,"Doolweg  , Antwerpen, 2150, Belgique","Doolweg, Rooibos, Borsbeek, Antwerpen, Vlaanderen, 2150, België / Belgique / Belgien","(51.1928414, 4.4894483, 0.0)",51.1928414,4.4894483,0.0
2942.0,,Antwerpsesteenweg ,496.0,2390.0,Westmalle,Antwerpen,inkomhal logistiek glvl,,,,"Antwerpsesteenweg  496, Antwerpen, 2390, Belgique","Brouwerij Westmalle, 496, Antwerpsesteenweg, Sint-Paulus-Westmalle, Westmalle, Malle, Antwerpen, Vlaanderen, 2390, België / Belgique / Belgien","(51.285726499999996, 4.657487656889558, 0.0)",51.285726499999996,4.657487656889558,0.0
2949.0,,Arenbergstraat,24.0,2000.0,Antwerpen,Antwerpen,"glvl,achter onthaal bij liften",,,,"Arenbergstraat 24, Antwerpen, 2000, Belgique","24, Arenbergstraat, Theaterbuurt, Sint-Anna, Antwerpen, Vlaanderen, 2000, België / Belgique / Belgien","(51.21519325, 4.407594888319035, 0.0)",51.21519325,4.407594888319035,0.0
2950.0,,Provinciebaan,,2230.0,Herselt,Antwerpen," glvl, oogpraktijk",,,,"Provinciebaan , Antwerpen, 2230, Belgique","Provinciebaan / Varkensmarkt, Ramsel, Herselt, Turnhout, Antwerpen, Vlaanderen, 2230, België / Belgique / Belgien","(51.0584872, 4.8117596, 0.0)",51.0584872,4.8117596,0.0
2952.0,,Amsterdamstraat ,18.0,2000.0,Antwerpen,Antwerpen,"verd 1A, lobie",,,,"Amsterdamstraat  18, Antwerpen, 2000, Belgique","18, Amsterdamstraat, Transportzone Meer, Meer, Hoogstraten, Turnhout, Antwerpen, Vlaanderen, 2321, België / Belgique / Belgien","(51.48345305, 4.7321157480288525, 0.0)",51.48345305,4.7321157480288525,0.0
2982.0,,St. Bavostraat,66.0,2610.0,Wilrijk,Antwerpen,receptie op glvl,,,,"St. Bavostraat 66, Antwerpen, 2610, Belgique","66, Sint-Bavostraat, Wilrijk, Antwerpen, Vlaanderen, 2610, België / Belgique / Belgien","(51.17213535, 4.407210257442571, 0.0)",51.17213535,4.407210257442571,0.0
2983.0,,St. Bavostraat,66.0,2610.0,Wilrijk,Antwerpen,aan het EHBO-lokaal,,,,"St. Bavostraat 66, Antwerpen, 2610, Belgique","66, Sint-Bavostraat, Wilrijk, Antwerpen, Vlaanderen, 2610, België / Belgique / Belgien","(51.17213535, 4.407210257442571, 0.0)",51.17213535,4.407210257442571,0.0
2984.0,,R. Verbeecklaan,5.0,2540.0,Hove,Antwerpen,polyvalente zaal glvl - kiné,,,,"R. Verbeecklaan 5, Antwerpen, 2540, Belgique",,,,,
3007.0,,Noorderlaan,139.0,2030.0,Antwerpen,Antwerpen,"receptie Ferranti, 3de verd",,,,"Noorderlaan 139, Antwerpen, 2030, Belgique","Ahlers, 139, Noorderlaan, Antwerpen, Vlaanderen, 2030, België / Belgique / Belgien","(51.26407835, 4.401619965819215, 0.0)",51.26407835,4.401619965819215,0.0
3029.0,,Nijverheidsstraat,28.0,2381.0,Weelde,Antwerpen,glvl in EHBO-lokaal ,,,,"Nijverheidsstraat 28, Antwerpen, 2381, Belgique","28, Nijverheidsstraat, Weelde, Ravels, Turnhout, Antwerpen, Vlaanderen, 2381, België / Belgique / Belgien","(51.41166605, 4.958211391905919, 0.0)",51.41166605,4.958211391905919,0.0
3038.0,,Jozef De Bomstraat,47.0,2018.0,Antwerpen,Antwerpen,glvl,,,,"Jozef De Bomstraat 47, Antwerpen, 2018, Belgique","45-47, Jozef De Bomstraat, Harmonie, Antwerpen, Vlaanderen, 2018, België / Belgique / Belgien","(51.2064722, 4.405931482296769, 0.0)",51.2064722,4.405931482296769,0.0
3040.0,,Satenrozen ,7.0,2550.0,Kontich,Antwerpen,glvl in sas tsn bureau-magazijnen,,,,"Satenrozen  7, Antwerpen, 2550, Belgique","Power Climber, 7, Satenrozen, Kontich, Antwerpen, Vlaanderen, 2550, België / Belgique / Belgien","(51.1252565, 4.419921245887684, 0.0)",51.1252565,4.419921245887684,0.0
3072.0,,Brialmontlei ,45.0,2018.0,Antwerpen,Antwerpen,"glvl, inkomhal",,,,"Brialmontlei  45, Antwerpen, 2018, Belgique","Brialmontlei, Klein-Antwerpen, Antwerpen, Vlaanderen, 2018, België / Belgique / Belgien","(51.2096761, 4.421382, 0.0)",51.2096761,4.421382,0.0
3073.0,,Jacob Jordaensstraat ,21.0,2018.0,Antwerpen,Antwerpen,"glvl, atrium",,,,"Jacob Jordaensstraat  21, Antwerpen, 2018, Belgique","Jacob Jordaensstraat, Klein-Antwerpen, Antwerpen, Vlaanderen, 2018, België / Belgique / Belgien","(51.2089258, 4.4152641, 0.0)",51.2089258,4.4152641,0.0
3074.0,,Turnhoutsebaan ,250.0,2600.0,Berchem,Antwerpen,"glvl,inkomhal centrale deur",,,,"Turnhoutsebaan  250, Antwerpen, 2600, Belgique","250,250A, Turnhoutsebaan, Deurne, Antwerpen, Vlaanderen, 2100, België / Belgique / Belgien","(51.218534399999996, 4.47407977179321, 0.0)",51.218534399999996,4.47407977179321,0.0
3088.0,,Hoogboomsteenweg,124.0,2950.0,Kapellen,Antwerpen,hoofdgang,,,,"Hoogboomsteenweg 124, Antwerpen, 2950, Belgique","124, Hoogboomsteenweg, Hoogboom, Hoogboom-Zilverenhoek, Kapellen, Antwerpen, Vlaanderen, 2950, België / Belgique / Belgien","(51.3137076, 4.450504079914978, 0.0)",51.3137076,4.450504079914978,0.0
3090.0,,Berchemstadionlaan,72.0,2600.0,Berchem,Antwerpen,inkomhal glvl linkerkant,,,,"Berchemstadionlaan 72, Antwerpen, 2600, Belgique",,,,,
3099.0,,Generaal De Wittelaan,,2800.0,Mechelen,Antwerpen,ingang gebouw,,,,"Generaal De Wittelaan , Antwerpen, 2800, Belgique","Generaal De Wittelaan, Mechelen, Antwerpen, Vlaanderen, 2800, België / Belgique / Belgien","(51.0591107, 4.4575469, 0.0)",51.0591107,4.4575469,0.0
3129.0,,Industriestraat,18.0,2500.0,Lier,Antwerpen,"EHBO lok, glvl, productiehal 1",,,,"Industriestraat 18, Antwerpen, 2500, Belgique","Gudrun, 18, Industriestraat, Hagenbroek, Lier, Mechelen, Antwerpen, Vlaanderen, 2500, België / Belgique / Belgien","(51.1469503, 4.556619927380154, 0.0)",51.1469503,4.556619927380154,0.0
3139.0,,Egide Walschaertsstraat ,,2800.0,Mechelen,Antwerpen," glvl, onder trap",,,,"Egide Walschaertsstraat  , Antwerpen, 2800, Belgique","Egide Walschaertsstraat, Mechelen, Antwerpen, Vlaanderen, 2800, België / Belgique / Belgien","(51.0028906, 4.460656, 0.0)",51.0028906,4.460656,0.0
3147.0,,Plaslaar,41.0,2500.0,Lier,Antwerpen," glvl, inkomhal",,,,"Plaslaar 41, Antwerpen, 2500, Belgique","Mivas 1, 41, Plaslaar, Lier, Mechelen, Antwerpen, Vlaanderen, 2500, België / Belgique / Belgien","(51.145170199999995, 4.549444564099577, 0.0)",51.145170199999995,4.549444564099577,0.0
3148.0,,Industriestraat,22.0,2500.0,Lier,Antwerpen,"glvl, werkplaats",,,,"Industriestraat 22, Antwerpen, 2500, Belgique","22, Industriestraat, Hagenbroek, Lier, Mechelen, Antwerpen, Vlaanderen, 2500, België / Belgique / Belgien","(51.1481643, 4.556974218488691, 0.0)",51.1481643,4.556974218488691,0.0
3164.0,,Sint-Bernardsesteenweg ,200.0,2020.0,Antwerpen,Antwerpen,glvl aan het onthaal,,,,"Sint-Bernardsesteenweg  200, Antwerpen, 2020, Belgique","200, Sint-Bernardsesteenweg, Kiel, Antwerpen, Vlaanderen, 2020, België / Belgique / Belgien","(51.1937039, 4.381373025700796, 0.0)",51.1937039,4.381373025700796,0.0
3165.0,,Carettestraat ,,2170.0,Merksem,Antwerpen,"EHBO ruimte,glvl",,,,"Carettestraat  , Antwerpen, 2170, Belgique",,,,,
3186.0,,Kontichsesteenweg,60.0,2630.0,Aartselaar,Antwerpen,EHBO-lokaal:links balie,,,,"Kontichsesteenweg 60, Antwerpen, 2630, Belgique","60, Kontichsesteenweg, Aartselaar, Antwerpen, Vlaanderen, 2630, België / Belgique / Belgien","(51.14425385, 4.394121925462326, 0.0)",51.14425385,4.394121925462326,0.0
3187.0,,Oostakker,1.0,2290.0,Vorselaar,Antwerpen,aan buitenmuur EHBO-lokaal sporthal,,,,"Oostakker 1, Antwerpen, 2290, Belgique","1,1A, Oostakker, Vorselaar, Turnhout, Antwerpen, Vlaanderen, 2290, België / Belgique / Belgien","(51.2060181, 4.774566677480177, 0.0)",51.2060181,4.774566677480177,0.0
3207.0,,Brabantstraat,6.0,2870.0,Puurs,Antwerpen," glvl, industriezone",,,,"Brabantstraat 6, Antwerpen, 2870, Belgique","6, Antoon Van Brabantstraat, Aartselaar, Antwerpen, Vlaanderen, 2630, België / Belgique / Belgien","(51.134379100000004, 4.388857935122521, 0.0)",51.134379100000004,4.388857935122521,0.0
3247.0,,Generaal Lemanstraat,47.0,2018.0,Antwerpen,Antwerpen,2verd. 5 achteraan,,,,"Generaal Lemanstraat 47, Antwerpen, 2018, Belgique","47, Generaal Lemanstraat, Markgrave, Antwerpen, Vlaanderen, 2018, België / Belgique / Belgien","(51.19470935, 4.410963575847422, 0.0)",51.19470935,4.410963575847422,0.0
3267.0,,Doelhaagstraat ,72.0,2840.0,Rumst,Antwerpen,"glvl, brandgang Mivas",,,,"Doelhaagstraat  72, Antwerpen, 2840, Belgique","Doelhaagstraat, Rumst, Antwerpen, Vlaanderen, 2840, België / Belgique / Belgien","(51.0792146, 4.4266544, 0.0)",51.0792146,4.4266544,0.0
3268.0,,Victor Dumonlaan ,,2830.0,Willebroek,Antwerpen,"glvl,bij betreden blok 15",,,,"Victor Dumonlaan  , Antwerpen, 2830, Belgique","Victor Dumonlaan, Willebroek, Mechelen, Antwerpen, Vlaanderen, 2830, België / Belgique / Belgien","(51.0741113, 4.3671474, 0.0)",51.0741113,4.3671474,0.0
3282.0,,Sportveldlaan ,25.0,2530.0,Boechout,Antwerpen,onthaal,,,,"Sportveldlaan  25, Antwerpen, 2530, Belgique","Sint-Mathildis, 25, Sportveldlaan, Boechout, Antwerpen, Vlaanderen, 2530, België / Belgique / Belgien","(51.159345, 4.485764204556744, 0.0)",51.159345,4.485764204556744,0.0
3291.0,,Listdreef 22,22.0,2900.0,Schoten,Antwerpen,centraal in garage,,,,"Listdreef 22 22, Antwerpen, 2900, Belgique","Listdreef, De List, Schoten, Antwerpen, Vlaanderen, 2900, België / Belgique / Belgien","(51.2638528, 4.4726858, 0.0)",51.2638528,4.4726858,0.0
3292.0,,Listdreef 28,28.0,2900.0,SCHOTEN,Antwerpen,centraal in garage,,,,"Listdreef 28 28, Antwerpen, 2900, Belgique","Listdreef, De List, Schoten, Antwerpen, Vlaanderen, 2900, België / Belgique / Belgien","(51.2638528, 4.4726858, 0.0)",51.2638528,4.4726858,0.0
3293.0,,Listdreef 34,34.0,2900.0,SCHOTEN,Antwerpen,centraal in garage,,,,"Listdreef 34 34, Antwerpen, 2900, Belgique","Listdreef, De List, Schoten, Antwerpen, Vlaanderen, 2900, België / Belgique / Belgien","(51.2638528, 4.4726858, 0.0)",51.2638528,4.4726858,0.0
3296.0,,Industrieweg ,17.0,2320.0,Hoogstraten,Antwerpen,"EHBO-lokaal, glvl",,,,"Industrieweg  17, Antwerpen, 2320, Belgique","Solidus Solutions Belgium BVBA, 17, Industrieweg, De Kluis, Hoogstraten, Turnhout, Antwerpen, Vlaanderen, 2320, België / Belgique / Belgien","(51.390613849999994, 4.736463626026817, 0.0)",51.390613849999994,4.736463626026817,0.0
3302.0,,Emdenweg,,2030.0,Antwerpen,Antwerpen,portiersloge Einde Emdenweg,,,,"Emdenweg , Antwerpen, 2030, Belgique","Emdenweg, Antwerpen, Vlaanderen, 2030, België / Belgique / Belgien","(51.2582546, 4.3642254, 0.0)",51.2582546,4.3642254,0.0
3314.0,,Prins Boudewijnlaan,47.0,2650.0,Edegem,Antwerpen,gebouw B naast receptie,,,,"Prins Boudewijnlaan 47, Antwerpen, 2650, Belgique","Technicolor, 47, Prins Boudewijnlaan, Edegem, Antwerpen, Vlaanderen, 2650, België / Belgique / Belgien","(51.1513529, 4.435503288545688, 0.0)",51.1513529,4.435503288545688,0.0
3315.0,,Prins Boudewijnlaan,47.0,2650.0,Edegem,Antwerpen,gebouw A ingang schuifdeur,,,,"Prins Boudewijnlaan 47, Antwerpen, 2650, Belgique","Technicolor, 47, Prins Boudewijnlaan, Edegem, Antwerpen, Vlaanderen, 2650, België / Belgique / Belgien","(51.1513529, 4.435503288545688, 0.0)",51.1513529,4.435503288545688,0.0
3317.0,,Lierbaan 46,46.0,2580.0,Putte,Antwerpen,inkomhal gelijkvloers,,,,"Lierbaan 46 46, Antwerpen, 2580, Belgique","Lierbaan, Putte, Mechelen, Antwerpen, Vlaanderen, 2580, België / Belgique / Belgien","(51.05836, 4.6282938, 0.0)",51.05836,4.6282938,0.0
3319.0,,Scheldelaan ,470.0,2040.0,Antwerpen,Antwerpen,garage nst brandweerkazerne,,,,"Scheldelaan  470, Antwerpen, 2040, Belgique","Noordlandbrug, Zandvliet, Berendrecht-Zandvliet-Lillo, Antwerpen, Vlaanderen, 2040, België / Belgique / Belgien","(51.3684615, 4.302381, 0.0)",51.3684615,4.302381,0.0
3320.0,,Scheldelaan ,470.0,2040.0,Antwerpen,Antwerpen,gang naast EHBO-lokaal,,,,"Scheldelaan  470, Antwerpen, 2040, Belgique","Noordlandbrug, Zandvliet, Berendrecht-Zandvliet-Lillo, Antwerpen, Vlaanderen, 2040, België / Belgique / Belgien","(51.3684615, 4.302381, 0.0)",51.3684615,4.302381,0.0
3334.0,,G. Gilliotstraat ,60.0,2620.0,Hemiksem,Antwerpen,"keuken glvl, nst toiletten",,,,"G. Gilliotstraat  60, Antwerpen, 2620, Belgique",,,,,
3346.0,,Rijnkaai ,37.0,2000.0,Antwerpen,Antwerpen,nabij de receptie,,,,"Rijnkaai  37, Antwerpen, 2000, Belgique","Friendship Building, 37, Rijnkaai, Nieuwstad-Cadix, Eilandje, Sint-Anna, Antwerpen, Vlaanderen, 2000, België / Belgique / Belgien","(51.23062075, 4.403312757021411, 0.0)",51.23062075,4.403312757021411,0.0
3348.0,,Noordelaan ,79.0,2030.0,Antwerpen,Antwerpen,1ste verdieping,,,,"Noordelaan  79, Antwerpen, 2030, Belgique",,,,,
3375.0,,Hoveniersstraat,22.0,2018.0,Antwerpen,Antwerpen,glvl in hal v. AWDC gebouw,,,,"Hoveniersstraat 22, Antwerpen, 2018, Belgique","22, Hoveniersstraat, Vosberg, Rumst, Antwerpen, Vlaanderen, 2840, België / Belgique / Belgien","(51.0853479, 4.4641559230683505, 0.0)",51.0853479,4.4641559230683505,0.0
3376.0,,Beddenstraat,,2000.0,Antwerpen,Antwerpen,"glvl,ingang kledingwink. Mango",,,,"Beddenstraat , Antwerpen, 2000, Belgique","Beddenstraat, Historisch Centrum, Sint-Anna, Antwerpen, Vlaanderen, 2000, België / Belgique / Belgien","(51.2193138, 4.403419, 0.0)",51.2193138,4.403419,0.0
3383.0,,Heiveldekens,16.0,2550.0,Kontich,Antwerpen,"glvl,inkomhal,nst deur magazijn",,,,"Heiveldekens 16, Antwerpen, 2550, Belgique","Rollway, 16, Heiveldekens, Kontich, Antwerpen, Vlaanderen, 2550, België / Belgique / Belgien","(51.1217756, 4.459303000735888, 0.0)",51.1217756,4.459303000735888,0.0
3390.0,,Duwijckstraat ,17.0,2500.0,Lier,Antwerpen,glvl achter receptie grote trap,,,,"Duwijckstraat  17, Antwerpen, 2500, Belgique","Accentis Business Center, 17, Duwijckstraat, Lier, Mechelen, Antwerpen, Vlaanderen, 2500, België / Belgique / Belgien","(51.15210845, 4.536128680326549, 0.0)",51.15210845,4.536128680326549,0.0
3391.0,,Kloosterstraat ,4.0,2330.0,Merksplas,Antwerpen,inkomhal links a d muur,,,,"Kloosterstraat  4, Antwerpen, 2330, Belgique","4, Kloosterstraat, Merksplas, Turnhout, Antwerpen, Vlaanderen, 2330, België / Belgique / Belgien","(51.3582398, 4.864233777186442, 0.0)",51.3582398,4.864233777186442,0.0
3392.0,,Beliweg ,20.0,2030.0,Antwerpen,Antwerpen,"zwart geb,op glvl in EHBO lokaal",,,,"Beliweg  20, Antwerpen, 2030, Belgique","Beliweg, Antwerpen, Vlaanderen, 2030, België / Belgique / Belgien","(51.2503799, 4.3617387, 0.0)",51.2503799,4.3617387,0.0
